# 
# Header Description:
# 
# Version: v2.0.0.1 Platform: 7.1.2 Manufacturer: LeMobile Model: Le 2 Pro
# 
# Raw,ElapsedRealtimeMillis,TimeNanos,LeapSecond,TimeUncertaintyNanos,FullBiasNanos,BiasNanos,BiasUncertaintyNanos,DriftNanosPerSecond,DriftUncertaintyNanosPerSecond,HardwareClockDiscontinuityCount,Svid,TimeOffsetNanos,State,ReceivedSvTimeNanos,ReceivedSvTimeUncertaintyNanos,Cn0DbHz,PseudorangeRateMetersPerSecond,PseudorangeRateUncertaintyMetersPerSecond,AccumulatedDeltaRangeState,AccumulatedDeltaRangeMeters,AccumulatedDeltaRangeUncertaintyMeters,CarrierFrequencyHz,CarrierCycles,CarrierPhase,CarrierPhaseUncertainty,MultipathIndicator,SnrInDb,ConstellationType,AgcDb,CarrierFrequencyHz
# 
# Fix,Provider,Latitude,Longitude,Altitude,Speed,Accuracy,(UTC)TimeInMs
# 
# Nav,Svid,Type,Status,MessageId,Sub-messageId,Data(Bytes)
# 
NMEA,$GNGGA,115819.000,5559.0000,N,03712.5758,E,1,18,0.63,230.1,M,14.9,M,,*73
,1512993499000
Fix,gps,55.983333,37.209597,230.100000,0.000000,0.900000,1512993499000
NMEA,$GPGSA,A,3,03,06,23,31,26,07,22,09,29,16,,,0.92,0.63,0.67*0D
,1512993499000
NMEA,$GLGSA,A,3,78,70,69,79,86,71,,,,,,,0.92,0.63,0.67*10
,1512993499000
NMEA,$BDGSA,A,3,14,10,,,,,,,,,,,0.92,0.63,0.67*18
,1512993499000
NMEA,$GPGSV,3,1,10,23,87,159,34.1,09,54,263,35.6,03,43,148,42.3,06,37,285,38.9*73
,1512993499000
NMEA,$GPGSV,3,2,10,26,30,078,26.5,22,23,144,30.3,16,22,112,26.9,07,14,208,30.7*74
,1512993499000
NMEA,$GPGSV,3,3,10,31,14,046,36.0,29,05,015,30.3*72
,1512993499000
NMEA,$GLGSV,2,1,8,70,82,342,25.2,79,44,046,35.6,69,34,112,30.0,71,30,300,40.5*51
,1512993499000
NMEA,$GLGSV,2,2,8,86,24,290,33.0,87,19,349,20.2,78,07,022,39.9,85,02,242,*49
,1512993499000
NMEA,$BDGSV,1,1,4,14,70,150,34.4,10,48,109,25.8,17,30,050,,07,,,28.0*70
,1512993499000
NMEA,$GNRMC,115819.000,A,5559.0000,N,03712.5758,E,0.000,67.92,111217,,,A*7E
,1512993499000
NMEA,$GNVTG,67.92,T,,M,0.000,N,0.000,K,A*19
,1512993499000
NMEA,$GNACCURACY,0.9*1F
,1512993499000
Fix,gps,55.983333,37.209597,230.100000,0.000000,1.000000,1512993500000
NMEA,$GNGGA,115820.000,5559.0000,N,03712.5758,E,1,18,0.63,230.1,M,14.9,M,,*79
,1512993500000
NMEA,$GPGSA,A,3,03,06,23,31,26,07,22,09,29,16,,,0.92,0.63,0.67*0D
,1512993500000
NMEA,$GLGSA,A,3,78,70,69,79,86,71,,,,,,,0.92,0.63,0.67*10
,1512993500000
NMEA,$BDGSA,A,3,14,10,,,,,,,,,,,0.92,0.63,0.67*18
,1512993500000
NMEA,$GPGSV,3,1,10,23,87,159,41.9,09,54,263,35.8,03,43,148,41.2,06,37,285,41.6*74
,1512993500000
NMEA,$GPGSV,3,2,10,26,30,078,33.1,22,23,144,33.6,16,22,112,31.4,07,14,208,35.7*7C
,1512993500000
NMEA,$GPGSV,3,3,10,31,14,046,34.2,29,05,015,30.0*71
,1512993500000
NMEA,$GLGSV,2,1,8,70,82,342,25.5,79,44,046,35.5,69,34,112,29.0,71,30,300,40.2*5A
,1512993500000
NMEA,$GLGSV,2,2,8,86,24,290,33.2,87,19,349,19.4,78,07,022,28.8,85,02,242,*46
,1512993500000
NMEA,$BDGSV,1,1,4,14,70,150,34.3,10,48,109,26.7,17,30,050,,07,,,28.6*7D
,1512993500000
NMEA,$GNRMC,115820.000,A,5559.0000,N,03712.5758,E,0.000,67.92,111217,,,A*74
,1512993500000
NMEA,$GNVTG,67.92,T,,M,0.000,N,0.000,K,A*19
,1512993500000
NMEA,$GNACCURACY,1.0*17
,1512993500000
NMEA,$GNGGA,115821.000,5559.0000,N,03712.5758,E,1,18,0.63,230.1,M,14.9,M,,*78
,1512993501000
NMEA,$GPGSA,A,3,03,06,23,31,26,07,22,09,29,16,,,0.92,0.63,0.67*0D
,1512993501000
Fix,gps,55.983333,37.209597,230.100000,0.000000,1.100000,1512993501000
NMEA,$GLGSA,A,3,78,70,69,79,86,71,,,,,,,0.92,0.63,0.67*10
,1512993501000
NMEA,$BDGSA,A,3,14,10,,,,,,,,,,,0.92,0.63,0.67*18
,1512993501000
NMEA,$GPGSV,3,1,10,23,87,159,27.9,09,54,263,33.5,03,43,148,39.3,06,37,285,28.2*7A
,1512993501000
NMEA,$GPGSV,3,2,10,26,30,078,33.6,22,23,144,27.7,16,22,112,24.9,07,14,208,35.2*73
,1512993501000
NMEA,$GPGSV,3,3,10,31,14,046,34.3,29,05,015,34.5*71
,1512993501000
NMEA,$GLGSV,2,1,8,70,82,342,25.3,79,44,046,33.9,69,34,112,28.1,71,30,300,39.9*53
,1512993501000
NMEA,$GLGSV,2,2,8,86,24,290,34.2,87,19,349,19.9,78,07,022,29.3,85,02,242,*46
,1512993501000
NMEA,$BDGSV,1,1,4,14,70,150,31.8,10,48,109,26.2,17,30,050,,07,,,29.0*71
,1512993501000
NMEA,$GNRMC,115821.000,A,5559.0000,N,03712.5758,E,0.000,67.92,111217,,,A*75
,1512993501000
NMEA,$GNVTG,67.92,T,,M,0.000,N,0.000,K,A*19
,1512993501000
NMEA,$GNACCURACY,1.1*16
,1512993501000
Fix,gps,55.983373,37.209653,227.700000,0.255302,1.100000,1512993502000
NMEA,$GNGGA,115822.000,5559.0024,N,03712.5792,E,1,18,0.63,227.7,M,14.9,M,,*7B
,1512993502000
NMEA,$GPGSA,A,3,03,06,23,31,26,07,22,09,29,16,,,0.92,0.63,0.67*0D
,1512993502000
NMEA,$GLGSA,A,3,78,70,69,79,86,71,,,,,,,0.92,0.63,0.67*10
,1512993502000
NMEA,$BDGSA,A,3,14,10,,,,,,,,,,,0.92,0.63,0.67*18
,1512993502000
NMEA,$GPGSV,3,1,10,23,87,159,28.1,09,54,263,31.5,03,43,148,28.9,06,37,285,27.7*7F
,1512993502000
NMEA,$GPGSV,3,2,10,26,30,078,28.4,22,23,144,27.5,16,22,112,27.1,07,14,208,21.1*74
,1512993502000
NMEA,$GPGSV,3,3,10,31,14,046,22.8,29,05,015,25.1*79
,1512993502000
NMEA,$GLGSV,2,1,8,70,82,342,24.6,79,44,046,31.4,69,34,112,25.9,71,30,300,28.5*51
,1512993502000
NMEA,$GLGSV,2,2,8,86,24,290,24.5,87,19,349,19.9,78,07,022,27.8,85,02,242,*45
,1512993502000
NMEA,$BDGSV,1,1,4,14,70,150,21.2,10,48,109,25.7,17,30,050,,07,,,27.3*71
,1512993502000
NMEA,$GNRMC,115822.000,A,5559.0024,N,03712.5792,E,0.496,89.91,111217,,,A*7E
,1512993502000
NMEA,$GNVTG,89.91,T,,M,0.496,N,0.919,K,A*10
,1512993502000
NMEA,$GNACCURACY,1.1*16
,1512993502000
Fix,gps,55.983375,37.209660,227.700000,0.000000,1.300000,1512993503000
NMEA,$GNGGA,115823.000,5559.0025,N,03712.5796,E,1,18,0.63,227.7,M,14.9,M,,*7F
,1512993503000
NMEA,$GPGSA,A,3,03,06,23,31,26,07,22,09,29,16,,,0.92,0.63,0.67*0D
,1512993503000
NMEA,$GLGSA,A,3,78,70,69,79,86,71,,,,,,,0.92,0.63,0.67*10
,1512993503000
NMEA,$BDGSA,A,3,14,10,,,,,,,,,,,0.92,0.63,0.67*18
,1512993503000
NMEA,$GPGSV,3,1,10,23,87,159,27.8,09,54,263,29.8,03,43,148,28.4,06,37,285,26.6*70
,1512993503000
NMEA,$GPGSV,3,2,10,26,30,078,26.7,22,23,144,27.6,16,22,112,25.9,07,14,208,21.1*70
,1512993503000
NMEA,$GPGSV,3,3,10,31,14,046,22.8,29,05,015,24.3*7A
,1512993503000
NMEA,$GLGSV,2,1,8,70,82,342,23.6,79,44,046,24.6,69,34,112,24.4,71,30,300,27.8*5E
,1512993503000
NMEA,$GLGSV,2,2,8,86,24,290,25.1,87,19,349,18.7,78,07,022,26.4,85,02,242,*42
,1512993503000
NMEA,$BDGSV,1,1,4,14,70,150,21.8,10,48,109,23.8,17,30,050,,07,,,17.8*7A
,1512993503000
NMEA,$GNRMC,115823.000,A,5559.0025,N,03712.5796,E,0.000,89.91,111217,,,A*71
,1512993503000
NMEA,$GNVTG,89.91,T,,M,0.000,N,0.000,K,A*1A
,1512993503000
NMEA,$GNACCURACY,1.3*14
,1512993503000
Fix,gps,55.983375,37.209665,227.700000,0.000000,1.400000,1512993504000
NMEA,$GNGGA,115824.000,5559.0025,N,03712.5799,E,1,18,0.63,227.7,M,14.9,M,,*77
,1512993504000
NMEA,$GPGSA,A,3,03,06,23,31,26,07,22,09,29,16,,,0.92,0.63,0.67*0D
,1512993504000
NMEA,$GLGSA,A,3,78,70,69,79,86,71,,,,,,,0.92,0.63,0.67*10
,1512993504000
NMEA,$BDGSA,A,3,14,10,,,,,,,,,,,0.92,0.63,0.67*18
,1512993504000
NMEA,$GPGSV,3,1,10,23,87,159,27.7,09,54,263,29.1,03,43,148,28.5,06,37,285,27.1*71
,1512993504000
NMEA,$GPGSV,3,2,10,26,30,078,24.6,22,23,144,25.7,16,22,112,25.1,07,14,208,21.1*78
,1512993504000
NMEA,$GPGSV,3,3,10,31,14,046,27.7,29,05,015,24.1*72
,1512993504000
NMEA,$GLGSV,2,1,8,70,82,342,22.9,79,44,046,24.6,69,34,112,23.3,71,30,300,27.9*51
,1512993504000
NMEA,$GLGSV,2,2,8,86,24,290,25.9,87,19,349,18.0,78,07,022,25.4,85,02,242,*4E
,1512993504000
NMEA,$BDGSV,1,1,4,14,70,150,26.6,10,48,109,23.2,17,30,050,,07,,,21.6*72
,1512993504000
NMEA,$GNRMC,115824.000,A,5559.0025,N,03712.5799,E,0.000,75.71,111217,,,A*74
,1512993504000
NMEA,$GNVTG,75.71,T,,M,0.000,N,0.000,K,A*17
,1512993504000
NMEA,$GNACCURACY,1.4*13
,1512993504000
Fix,gps,55.983377,37.209668,227.600000,0.000000,1.500000,1512993505000
NMEA,$GNGGA,115825.000,5559.0026,N,03712.5801,E,1,18,0.63,227.6,M,14.9,M,,*7A
,1512993505000
NMEA,$GPGSA,A,3,03,06,23,31,26,07,22,09,29,16,,,0.92,0.63,0.67*0D
,1512993505000
NMEA,$GLGSA,A,3,78,70,69,79,86,71,,,,,,,0.92,0.63,0.67*10
,1512993505000
NMEA,$BDGSA,A,3,14,10,,,,,,,,,,,0.92,0.63,0.67*18
,1512993505000
NMEA,$GPGSV,3,1,10,23,87,159,27.5,09,54,263,34.3,03,43,148,34.4,06,37,285,32.9*7D
,1512993505000
NMEA,$GPGSV,3,2,10,26,30,078,23.2,22,23,144,23.6,16,22,112,24.6,07,14,208,10.7*7E
,1512993505000
NMEA,$GPGSV,3,3,10,31,14,046,28.2,29,05,015,26.0*7B
,1512993505000
NMEA,$GLGSV,2,1,8,70,82,342,22.4,79,44,046,24.3,69,34,112,20.1,71,30,300,32.1*54
,1512993505000
NMEA,$GLGSV,2,2,8,86,24,290,32.1,87,19,349,17.4,78,07,022,24.8,85,02,242,*46
,1512993505000
NMEA,$BDGSV,1,1,4,14,70,150,27.0,10,48,109,23.1,17,30,050,,07,,,21.6*76
,1512993505000
NMEA,$GNRMC,115825.000,A,5559.0026,N,03712.5801,E,0.000,78.36,111217,,,A*76
,1512993505000
NMEA,$GNVTG,78.36,T,,M,0.000,N,0.000,K,A*19
,1512993505000
NMEA,$GNACCURACY,1.5*12
,1512993505000
Fix,gps,55.983377,37.209667,227.600000,0.000000,1.600000,1512993506000
NMEA,$GNGGA,115826.000,5559.0026,N,03712.5800,E,1,18,0.63,227.6,M,14.9,M,,*78
,1512993506000
NMEA,$GPGSA,A,3,03,06,23,31,26,07,22,09,29,16,,,0.92,0.63,0.67*0D
,1512993506000
NMEA,$GLGSA,A,3,78,70,69,79,86,71,,,,,,,0.92,0.63,0.67*10
,1512993506000
NMEA,$BDGSA,A,3,14,10,,,,,,,,,,,0.92,0.63,0.67*18
,1512993506000
NMEA,$GPGSV,3,1,10,23,87,159,32.0,09,54,263,33.0,03,43,148,34.7,06,37,285,31.3*72
,1512993506000
NMEA,$GPGSV,3,2,10,26,30,078,34.9,22,23,144,31.8,16,22,112,24.9,07,14,208,23.7*71
,1512993506000
NMEA,$GPGSV,3,3,10,31,14,046,38.6,29,05,015,29.7*76
,1512993506000
NMEA,$GLGSV,2,1,8,70,82,342,29.2,79,44,046,37.4,69,34,112,20.4,71,30,300,32.4*5C
,1512993506000
NMEA,$GLGSV,2,2,8,86,24,290,31.8,87,19,349,24.1,78,07,022,38.7,85,02,242,*4B
,1512993506000
NMEA,$BDGSV,1,1,4,14,70,150,27.5,10,48,109,28.6,17,30,050,,07,,,31.1*79
,1512993506000
NMEA,$GNRMC,115826.000,A,5559.0026,N,03712.5800,E,0.000,106.35,111217,,,A*4F
,1512993506000
NMEA,$GNVTG,106.35,T,,M,0.000,N,0.000,K,A*22
,1512993506000
NMEA,$GNACCURACY,1.6*11
,1512993506000
Fix,gps,55.983377,37.209667,227.600000,0.000000,1.700000,1512993507000
NMEA,$GNGGA,115827.000,5559.0026,N,03712.5800,E,1,18,0.63,227.6,M,14.9,M,,*79
,1512993507000
NMEA,$GPGSA,A,3,03,06,23,31,26,07,22,09,29,16,,,0.92,0.63,0.67*0D
,1512993507000
NMEA,$GLGSA,A,3,78,70,69,79,86,71,,,,,,,0.92,0.63,0.67*10
,1512993507000
NMEA,$BDGSA,A,3,14,10,,,,,,,,,,,0.92,0.63,0.67*18
,1512993507000
NMEA,$GPGSV,3,1,10,23,87,159,30.9,09,54,263,31.3,03,43,148,32.9,06,37,285,29.7*7D
,1512993507000
NMEA,$GPGSV,3,2,10,26,30,078,32.9,22,23,144,31.1,16,22,112,27.7,07,14,208,22.5*70
,1512993507000
NMEA,$GPGSV,3,3,10,31,14,046,37.0,29,05,015,24.2*77
,1512993507000
NMEA,$GLGSV,2,1,8,70,82,342,21.5,79,44,046,34.7,69,34,112,20.3,71,30,300,29.8*52
,1512993507000
NMEA,$GLGSV,2,2,8,86,24,290,30.1,87,19,349,23.2,78,07,022,37.4,85,02,242,*4B
,1512993507000
NMEA,$BDGSV,1,1,4,14,70,150,27.6,10,48,109,28.4,17,30,050,,07,,,28.8*79
,1512993507000
NMEA,$GNRMC,115827.000,A,5559.0026,N,03712.5800,E,0.000,106.35,111217,,,A*4E
,1512993507000
NMEA,$GNVTG,106.35,T,,M,0.000,N,0.000,K,A*22
,1512993507000
NMEA,$GNACCURACY,1.7*10
,1512993507000
Fix,gps,55.983377,37.209667,227.600000,0.000000,1.700000,1512993508000
NMEA,$GNGGA,115828.000,5559.0026,N,03712.5800,E,1,18,0.63,227.6,M,14.9,M,,*76
,1512993508000
NMEA,$GPGSA,A,3,03,06,23,31,26,07,22,09,29,16,,,0.92,0.63,0.67*0D
,1512993508000
NMEA,$GLGSA,A,3,78,70,69,79,86,71,,,,,,,0.92,0.63,0.67*10
,1512993508000
NMEA,$BDGSA,A,3,14,10,,,,,,,,,,,0.92,0.63,0.67*18
,1512993508000
NMEA,$GPGSV,3,1,10,23,87,159,27.9,09,54,263,34.5,03,43,148,30.8,06,37,285,28.0*7D
,1512993508000
NMEA,$GPGSV,3,2,10,26,30,078,30.2,22,23,144,28.7,16,22,112,26.3,07,14,208,23.8*7E
,1512993508000
NMEA,$GPGSV,3,3,10,31,14,046,27.7,29,05,015,27.1*71
,1512993508000
NMEA,$GLGSV,2,1,8,70,82,342,19.9,79,44,046,33.5,69,34,112,20.4,71,30,300,28.5*5B
,1512993508000
NMEA,$GLGSV,2,2,8,86,24,290,28.9,87,19,349,16.2,78,07,022,35.3,85,02,242,*49
,1512993508000
NMEA,$BDGSV,1,1,4,14,70,150,26.4,10,48,109,27.1,17,30,050,,07,,,19.8*72
,1512993508000
NMEA,$GNRMC,115828.000,A,5559.0026,N,03712.5800,E,0.000,106.35,111217,,,A*41
,1512993508000
NMEA,$GNVTG,106.35,T,,M,0.000,N,0.000,K,A*22
,1512993508000
NMEA,$GNACCURACY,1.7*10
,1512993508000
Fix,gps,55.983377,37.209667,227.600000,0.000000,1.800000,1512993509000
NMEA,$GNGGA,115829.000,5559.0026,N,03712.5800,E,1,18,0.63,227.6,M,14.9,M,,*77
,1512993509000
NMEA,$GPGSA,A,3,03,06,23,31,26,07,22,09,29,16,,,0.92,0.63,0.67*0D
,1512993509000
NMEA,$GLGSA,A,3,78,70,69,79,86,71,,,,,,,0.92,0.63,0.67*10
,1512993509000
NMEA,$BDGSA,A,3,14,10,,,,,,,,,,,0.92,0.63,0.67*18
,1512993509000
NMEA,$GPGSV,3,1,10,23,87,159,25.5,09,54,263,26.5,03,43,148,29.6,06,37,285,26.8*70
,1512993509000
NMEA,$GPGSV,3,2,10,26,30,078,27.6,22,23,144,31.4,16,22,112,24.9,07,14,208,19.6*78
,1512993509000
NMEA,$GPGSV,3,3,10,31,14,046,26.6,29,05,015,27.2*72
,1512993509000
NMEA,$GLGSV,2,1,8,70,82,342,19.9,79,44,046,25.5,69,34,112,20.5,71,30,300,27.4*53
,1512993509000
NMEA,$GLGSV,2,2,8,86,24,290,27.6,87,19,349,,78,07,022,28.1,85,02,242,*5C
,1512993509000
NMEA,$BDGSV,1,1,4,14,70,150,26.3,10,48,109,24.6,17,30,050,,07,,,19.0*79
,1512993509000
NMEA,$GNRMC,115829.000,A,5559.0026,N,03712.5800,E,0.000,106.35,111217,,,A*40
,1512993509000
NMEA,$GNVTG,106.35,T,,M,0.000,N,0.000,K,A*22
,1512993509000
NMEA,$GNACCURACY,1.8*1F
,1512993509000
Fix,gps,55.983377,37.209667,227.600000,0.000000,1.100000,1512993510000
NMEA,$GNGGA,115830.000,5559.0026,N,03712.5800,E,1,18,0.63,227.6,M,14.9,M,,*7F
,1512993510000
NMEA,$GPGSA,A,3,03,06,23,31,26,07,22,09,29,16,,,0.92,0.63,0.67*0D
,1512993510000
NMEA,$GLGSA,A,3,78,70,69,79,86,71,,,,,,,0.92,0.63,0.67*10
,1512993510000
NMEA,$BDGSA,A,3,14,10,,,,,,,,,,,0.92,0.63,0.67*18
,1512993510000
NMEA,$GPGSV,3,1,10,23,87,159,29.7,09,54,263,25.9,03,43,148,34.8,06,37,285,24.6*7F
,1512993510000
NMEA,$GPGSV,3,2,10,26,30,078,25.4,22,23,144,30.6,16,22,112,24.4,07,14,208,19.3*73
,1512993510000
NMEA,$GPGSV,3,3,10,31,14,046,26.0,29,05,015,28.8*71
,1512993510000
NMEA,$GLGSV,2,1,8,70,82,342,19.9,79,44,046,24.7,69,34,112,20.6,71,30,300,25.0*55
,1512993510000
NMEA,$GLGSV,2,2,8,86,24,290,26.6,87,19,349,,78,07,022,26.3,85,02,242,*51
,1512993510000
NMEA,$BDGSV,1,1,4,14,70,150,30.0,10,48,109,23.8,17,30,050,,07,,,16.2*79
,1512993510000
NMEA,$GNRMC,115830.000,A,5559.0026,N,03712.5800,E,0.000,106.35,111217,,,A*48
,1512993510000
NMEA,$GNVTG,106.35,T,,M,0.000,N,0.000,K,A*22
,1512993510000
NMEA,$GNACCURACY,1.1*16
,1512993510000
Fix,gps,55.983377,37.209667,227.600000,0.000000,1.000000,1512993511000
NMEA,$GNGGA,115831.000,5559.0026,N,03712.5800,E,1,18,0.63,227.6,M,14.9,M,,*7E
,1512993511000
NMEA,$GPGSA,A,3,03,06,23,31,26,07,22,09,29,16,,,0.92,0.63,0.67*0D
,1512993511000
NMEA,$GLGSA,A,3,78,70,69,79,86,71,,,,,,,0.92,0.63,0.67*10
,1512993511000
NMEA,$BDGSA,A,3,14,10,,,,,,,,,,,0.92,0.63,0.67*18
,1512993511000
NMEA,$GPGSV,3,1,10,23,87,159,35.6,09,54,263,26.4,03,43,148,38.0,06,37,285,37.2*7F
,1512993511000
NMEA,$GPGSV,3,2,10,26,30,078,36.1,22,23,144,29.1,16,22,112,32.3,07,14,208,25.3*74
,1512993511000
NMEA,$GPGSV,3,3,10,31,14,046,30.0,29,05,015,29.3*7C
,1512993511000
NMEA,$GLGSV,2,1,8,70,82,342,26.3,79,44,046,27.9,69,34,112,31.3,71,30,300,31.0*5E
,1512993511000
NMEA,$GLGSV,2,2,8,86,24,290,25.9,87,19,349,,78,07,022,25.9,85,02,242,*54
,1512993511000
NMEA,$BDGSV,1,1,4,14,70,150,30.3,10,48,109,27.3,17,30,050,,07,,,30.5*76
,1512993511000
NMEA,$GNRMC,115831.000,A,5559.0026,N,03712.5800,E,0.000,106.35,111217,,,A*49
,1512993511000
NMEA,$GNVTG,106.35,T,,M,0.000,N,0.000,K,A*22
,1512993511000
NMEA,$GNACCURACY,1.0*17
,1512993511000
Fix,gps,55.983377,37.209667,227.600000,0.000000,1.200000,1512993512000
NMEA,$GNGGA,115832.000,5559.0026,N,03712.5800,E,1,18,0.63,227.6,M,14.9,M,,*7D
,1512993512000
NMEA,$GPGSA,A,3,03,06,23,31,26,07,22,09,29,16,,,0.92,0.63,0.67*0D
,1512993512000
NMEA,$GLGSA,A,3,78,70,69,79,86,71,,,,,,,0.92,0.63,0.67*10
,1512993512000
NMEA,$BDGSA,A,3,14,10,,,,,,,,,,,0.92,0.63,0.67*18
,1512993512000
NMEA,$GPGSV,3,1,10,23,87,159,25.4,09,54,263,26.5,03,43,148,24.7,06,37,285,28.9*72
,1512993512000
NMEA,$GPGSV,3,2,10,26,30,078,24.2,22,23,144,24.8,16,22,112,28.6,07,14,208,25.3*7E
,1512993512000
NMEA,$GPGSV,3,3,10,31,14,046,20.6,29,05,015,26.7*70
,1512993512000
NMEA,$GLGSV,2,1,8,70,82,342,25.0,79,44,046,27.0,69,34,112,27.7,71,30,300,28.9*55
,1512993512000
NMEA,$GLGSV,2,2,8,86,24,290,25.5,87,19,349,,78,07,022,25.6,85,02,242,*57
,1512993512000
NMEA,$BDGSV,1,1,4,14,70,150,28.1,10,48,109,25.9,17,30,050,,07,,,22.7*74
,1512993512000
NMEA,$GNRMC,115832.000,A,5559.0026,N,03712.5800,E,0.000,328.00,111217,,,A*42
,1512993512000
NMEA,$GNVTG,328.00,T,,M,0.000,N,0.000,K,A*2A
,1512993512000
NMEA,$GNACCURACY,1.2*15
,1512993512000
Fix,gps,55.983377,37.209667,227.600000,0.000000,1.400000,1512993513000
NMEA,$GNGGA,115833.000,5559.0026,N,03712.5800,E,1,18,0.63,227.6,M,14.9,M,,*7C
,1512993513000
NMEA,$GPGSA,A,3,03,06,23,31,26,07,22,09,29,16,,,0.92,0.63,0.67*0D
,1512993513000
NMEA,$GLGSA,A,3,78,70,69,79,86,71,,,,,,,0.92,0.63,0.67*10
,1512993513000
NMEA,$BDGSA,A,3,14,10,,,,,,,,,,,0.92,0.63,0.67*18
,1512993513000
NMEA,$GPGSV,3,1,10,23,87,159,23.7,09,54,263,23.7,03,43,148,24.7,06,37,285,28.9*70
,1512993513000
NMEA,$GPGSV,3,2,10,26,30,078,22.7,22,23,144,24.8,16,22,112,28.6,07,14,208,16.1*7F
,1512993513000
NMEA,$GPGSV,3,3,10,31,14,046,20.6,29,05,015,24.9*7C
,1512993513000
NMEA,$GLGSV,2,1,8,70,82,342,23.0,79,44,046,24.5,69,34,112,27.7,71,30,300,18.4*5B
,1512993513000
NMEA,$GLGSV,2,2,8,86,24,290,25.2,87,19,349,,78,07,022,25.0,85,02,242,*56
,1512993513000
NMEA,$BDGSV,1,1,4,14,70,150,23.8,10,48,109,25.9,17,30,050,,07,,,21.0*72
,1512993513000
NMEA,$GNRMC,115833.000,A,5559.0026,N,03712.5800,E,0.000,328.00,111217,,,A*43
,1512993513000
NMEA,$GNVTG,328.00,T,,M,0.000,N,0.000,K,A*2A
,1512993513000
NMEA,$GNACCURACY,1.4*13
,1512993513000
Fix,gps,55.983377,37.209667,227.600000,0.000000,1.700000,1512993514000
NMEA,$GNGGA,115834.000,5559.0026,N,03712.5800,E,1,17,0.64,227.6,M,14.9,M,,*73
,1512993514000
NMEA,$GPGSA,A,3,03,06,23,31,26,07,22,09,29,16,,,0.93,0.64,0.67*0B
,1512993514000
NMEA,$GLGSA,A,3,78,70,79,86,71,,,,,,,,0.93,0.64,0.67*19
,1512993514000
NMEA,$BDGSA,A,3,14,10,,,,,,,,,,,0.93,0.64,0.67*1E
,1512993514000
NMEA,$GPGSV,3,1,10,23,87,159,23.4,09,54,263,23.3,03,43,148,23.1,06,37,285,15.7*76
,1512993514000
NMEA,$GPGSV,3,2,10,26,30,078,22.5,22,23,144,20.8,16,22,112,11.5,07,14,208,16.1*70
,1512993514000
NMEA,$GPGSV,3,3,10,31,14,046,20.6,29,05,015,22.5*76
,1512993514000
NMEA,$GLGSV,2,1,8,70,82,342,21.6,79,44,046,24.0,69,34,112,11.0,71,30,300,18.5*59
,1512993514000
NMEA,$GLGSV,2,2,8,86,24,290,21.9,87,19,349,,78,07,022,23.8,85,02,242,*57
,1512993514000
NMEA,$BDGSV,1,1,4,14,70,150,21.7,10,48,109,13.1,17,30,050,,07,,,19.7*7E
,1512993514000
NMEA,$GNRMC,115834.000,A,5559.0026,N,03712.5800,E,0.000,328.00,111217,,,A*44
,1512993514000
NMEA,$GNVTG,328.00,T,,M,0.000,N,0.000,K,A*2A
,1512993514000
NMEA,$GNACCURACY,1.7*10
,1512993514000
NMEA,$GNGGA,115835.000,5559.0026,N,03712.5800,E,1,17,0.64,227.6,M,14.9,M,,*72
,1512993515000
Fix,gps,55.983377,37.209667,227.600000,0.000000,1.800000,1512993515000
NMEA,$GPGSA,A,3,03,06,23,31,26,07,22,09,29,16,,,0.93,0.64,0.67*0B
,1512993515000
NMEA,$GLGSA,A,3,78,70,79,86,71,,,,,,,,0.93,0.64,0.67*19
,1512993515000
NMEA,$BDGSA,A,3,14,10,,,,,,,,,,,0.93,0.64,0.67*1E
,1512993515000
NMEA,$GPGSV,3,1,10,23,87,159,24.2,09,54,263,24.4,03,43,148,22.0,06,37,285,15.7*77
,1512993515000
NMEA,$GPGSV,3,2,10,26,30,078,23.2,22,23,144,20.2,16,22,112,11.5,07,14,208,16.2*7F
,1512993515000
NMEA,$GPGSV,3,3,10,31,14,046,19.2,29,05,015,20.9*76
,1512993515000
NMEA,$GLGSV,2,1,8,70,82,342,20.8,79,44,046,23.9,69,34,112,11.0,71,30,300,18.5*58
,1512993515000
NMEA,$GLGSV,2,2,8,86,24,290,20.7,87,19,349,,78,07,022,22.9,85,02,242,*58
,1512993515000
NMEA,$BDGSV,1,1,4,14,70,150,21.2,10,48,109,13.1,17,30,050,,07,,,19.7*7B
,1512993515000
NMEA,$GNRMC,115835.000,A,5559.0026,N,03712.5800,E,0.000,328.00,111217,,,A*45
,1512993515000
NMEA,$GNVTG,328.00,T,,M,0.000,N,0.000,K,A*2A
,1512993515000
NMEA,$GNACCURACY,1.8*1F
,1512993515000
Fix,gps,55.983372,37.209673,227.600000,0.000000,2.000000,1512993516000
NMEA,$GNGGA,115836.000,5559.0023,N,03712.5804,E,1,17,0.64,227.6,M,14.9,M,,*70
,1512993516000
NMEA,$GPGSA,A,3,03,06,23,31,26,07,22,09,29,16,,,0.93,0.64,0.67*0B
,1512993516000
NMEA,$GLGSA,A,3,78,70,79,86,71,,,,,,,,0.93,0.64,0.67*19
,1512993516000
NMEA,$BDGSA,A,3,14,10,,,,,,,,,,,0.93,0.64,0.67*1E
,1512993516000
NMEA,$GPGSV,3,1,10,23,87,159,24.7,09,54,263,25.3,03,43,148,21.0,06,37,285,15.7*77
,1512993516000
NMEA,$GPGSV,3,2,10,26,30,078,23.7,22,23,144,19.7,16,22,112,11.5,07,14,208,16.3*74
,1512993516000
NMEA,$GPGSV,3,3,10,31,14,046,18.3,29,05,015,18.7*73
,1512993516000
NMEA,$GLGSV,2,1,8,70,82,342,20.2,79,44,046,23.9,69,34,112,11.0,71,30,300,18.7*50
,1512993516000
NMEA,$GLGSV,2,2,8,86,24,290,19.9,87,19,349,,78,07,022,22.1,85,02,242,*54
,1512993516000
NMEA,$BDGSV,1,1,4,14,70,150,20.9,10,48,109,13.1,17,30,050,,07,,,20.4*78
,1512993516000
NMEA,$GNRMC,115836.000,A,5559.0023,N,03712.5804,E,0.000,328.00,111217,,,A*47
,1512993516000
NMEA,$GNVTG,328.00,T,,M,0.000,N,0.000,K,A*2A
,1512993516000
NMEA,$GNACCURACY,2.0*14
,1512993516000
Fix,gps,55.983375,37.209673,227.600000,0.000000,2.100000,1512993517000
NMEA,$GNGGA,115837.000,5559.0025,N,03712.5804,E,1,16,0.67,227.6,M,14.9,M,,*75
,1512993517000
NMEA,$GPGSA,A,3,03,06,23,31,26,07,22,09,29,,,,0.95,0.67,0.68*06
,1512993517000
NMEA,$GLGSA,A,3,78,70,79,86,71,,,,,,,,0.95,0.67,0.68*13
,1512993517000
NMEA,$BDGSA,A,3,14,10,,,,,,,,,,,0.95,0.67,0.68*14
,1512993517000
NMEA,$GPGSV,3,1,10,23,87,159,23.9,09,54,263,23.9,03,43,148,20.4,06,37,285,13.5*73
,1512993517000
NMEA,$GPGSV,3,2,10,26,30,078,22.5,22,23,144,19.4,16,22,112,11.6,07,14,208,16.3*77
,1512993517000
NMEA,$GPGSV,3,3,10,31,14,046,16.8,29,05,015,17.2*7C
,1512993517000
NMEA,$GLGSV,2,1,8,70,82,342,20.1,79,44,046,22.5,69,34,112,,71,30,300,18.8*4F
,1512993517000
NMEA,$GLGSV,2,2,8,86,24,290,19.2,87,19,349,,78,07,022,21.6,85,02,242,*5B
,1512993517000
NMEA,$BDGSV,1,1,4,14,70,150,20.5,10,48,109,14.1,17,30,050,,07,,,20.0*77
,1512993517000
NMEA,$GNRMC,115837.000,A,5559.0025,N,03712.5804,E,0.000,328.00,111217,,,A*40
,1512993517000
NMEA,$GNVTG,328.00,T,,M,0.000,N,0.000,K,A*2A
,1512993517000
NMEA,$GNACCURACY,2.1*15
,1512993517000
Fix,gps,55.983372,37.209675,227.600000,0.000000,2.200000,1512993518000
NMEA,$GNGGA,115838.000,5559.0023,N,03712.5805,E,1,16,0.67,227.6,M,14.9,M,,*7D
,1512993518000
NMEA,$GPGSA,A,3,03,06,23,31,26,07,22,09,29,,,,0.95,0.67,0.68*06
,1512993518000
NMEA,$GLGSA,A,3,78,70,79,86,71,,,,,,,,0.95,0.67,0.68*13
,1512993518000
NMEA,$BDGSA,A,3,14,10,,,,,,,,,,,0.95,0.67,0.68*14
,1512993518000
NMEA,$GPGSV,3,1,10,23,87,159,21.9,09,54,263,23.0,03,43,148,20.0,06,37,285,13.5*7C
,1512993518000
NMEA,$GPGSV,3,2,10,26,30,078,21.6,22,23,144,13.5,16,22,112,11.6,07,14,208,13.1*7B
,1512993518000
NMEA,$GPGSV,3,3,10,31,14,046,15.8,29,05,015,16.3*7F
,1512993518000
NMEA,$GLGSV,2,1,8,70,82,342,20.0,79,44,046,21.7,69,34,112,,71,30,300,18.7*40
,1512993518000
NMEA,$GLGSV,2,2,8,86,24,290,18.6,87,19,349,,78,07,022,20.5,85,02,242,*5C
,1512993518000
NMEA,$BDGSV,1,1,4,14,70,150,20.3,10,48,109,14.1,17,30,050,,07,,,20.1*70
,1512993518000
NMEA,$GNRMC,115838.000,A,5559.0023,N,03712.5805,E,0.000,328.00,111217,,,A*48
,1512993518000
NMEA,$GNVTG,328.00,T,,M,0.000,N,0.000,K,A*2A
,1512993518000
NMEA,$GNACCURACY,2.2*16
,1512993518000
Fix,gps,55.983372,37.209667,227.600000,0.000000,2.300000,1512993519000
NMEA,$GNGGA,115839.000,5559.0023,N,03712.5800,E,1,16,0.67,227.6,M,14.9,M,,*79
,1512993519000
NMEA,$GPGSA,A,3,03,06,23,31,26,07,22,09,29,,,,0.95,0.67,0.68*06
,1512993519000
NMEA,$GLGSA,A,3,78,70,79,86,71,,,,,,,,0.95,0.67,0.68*13
,1512993519000
NMEA,$BDGSA,A,3,14,10,,,,,,,,,,,0.95,0.67,0.68*14
,1512993519000
NMEA,$GPGSV,3,1,10,23,87,159,22.3,09,54,263,23.3,03,43,148,24.4,06,37,285,13.5*76
,1512993519000
NMEA,$GPGSV,3,2,10,26,30,078,22.3,22,23,144,13.5,16,22,112,10.5,07,14,208,13.1*7F
,1512993519000
NMEA,$GPGSV,3,3,10,31,14,046,15.1,29,05,015,21.5*74
,1512993519000
NMEA,$GLGSV,2,1,8,70,82,342,22.6,79,44,046,22.7,69,34,112,,71,30,300,18.5*45
,1512993519000
NMEA,$GLGSV,2,2,8,86,24,290,19.6,87,19,349,,78,07,022,21.1,85,02,242,*58
,1512993519000
NMEA,$BDGSV,1,1,4,14,70,150,21.4,10,48,109,15.2,17,30,050,,07,,,20.6*73
,1512993519000
NMEA,$GNRMC,115839.000,A,5559.0023,N,03712.5800,E,0.000,328.00,111217,,,A*4C
,1512993519000
NMEA,$GNVTG,328.00,T,,M,0.000,N,0.000,K,A*2A
,1512993519000
NMEA,$GNACCURACY,2.3*17
,1512993519000
Fix,gps,55.983372,37.209667,227.600000,0.000000,2.400000,1512993520000
NMEA,$GNGGA,115840.000,5559.0023,N,03712.5800,E,1,16,0.66,227.6,M,14.9,M,,*76
,1512993520000
NMEA,$GPGSA,A,3,03,06,23,31,26,07,22,09,29,,,,0.95,0.66,0.68*07
,1512993520000
NMEA,$GLGSA,A,3,78,70,79,86,71,,,,,,,,0.95,0.66,0.68*12
,1512993520000
NMEA,$BDGSA,A,3,14,10,,,,,,,,,,,0.95,0.66,0.68*15
,1512993520000
NMEA,$GPGSV,3,1,10,23,87,159,22.5,09,54,263,23.5,03,43,148,22.9,06,37,285,19.0*72
,1512993520000
NMEA,$GPGSV,3,2,10,26,30,078,22.7,22,23,144,13.5,16,22,112,10.5,07,14,208,15.2*7E
,1512993520000
NMEA,$GPGSV,3,3,10,31,14,046,13.4,29,05,015,21.5*77
,1512993520000
NMEA,$GLGSV,2,1,8,70,82,342,22.6,79,44,046,22.0,69,33,112,,71,30,300,18.6*46
,1512993520000
NMEA,$GLGSV,2,2,8,86,24,290,20.3,87,19,349,,78,07,022,20.6,85,02,242,*51
,1512993520000
NMEA,$BDGSV,1,1,4,14,70,150,21.2,10,48,109,15.2,17,30,050,,07,,,19.5*7C
,1512993520000
NMEA,$GNRMC,115840.000,A,5559.0023,N,03712.5800,E,0.000,328.00,111217,,,A*42
,1512993520000
NMEA,$GNVTG,328.00,T,,M,0.000,N,0.000,K,A*2A
,1512993520000
NMEA,$GNACCURACY,2.4*10
,1512993520000
NMEA,$GNGGA,115841.000,5559.0023,N,03712.5800,E,1,16,0.67,227.6,M,14.9,M,,*76
,1512993521000
Fix,gps,55.983372,37.209667,227.600000,0.000000,2.400000,1512993521000
NMEA,$GPGSA,A,3,03,06,23,31,26,07,22,09,29,,,,0.95,0.67,0.68*06
,1512993521000
NMEA,$GLGSA,A,3,78,70,79,86,71,,,,,,,,0.95,0.67,0.68*13
,1512993521000
NMEA,$BDGSA,A,3,14,10,,,,,,,,,,,0.95,0.67,0.68*14
,1512993521000
NMEA,$GPGSV,3,1,10,23,87,159,21.5,09,54,263,23.4,03,43,148,24.1,06,37,285,17.9*79
,1512993521000
NMEA,$GPGSV,3,2,10,26,30,078,22.8,22,23,144,12.3,16,22,112,10.5,07,14,208,15.2*76
,1512993521000
NMEA,$GPGSV,3,3,10,31,14,046,13.4,29,05,015,20.2*71
,1512993521000
NMEA,$GLGSV,2,1,8,70,82,347,21.6,79,44,046,21.0,69,33,112,,71,30,300,18.6*43
,1512993521000
NMEA,$GLGSV,2,2,8,86,24,290,20.8,87,19,349,,78,07,022,21.3,85,02,242,*5E
,1512993521000
NMEA,$BDGSV,1,1,4,14,70,150,21.0,10,48,109,15.2,17,30,050,,07,,,18.7*7D
,1512993521000
NMEA,$GNRMC,115841.000,A,5559.0023,N,03712.5800,E,0.000,328.00,111217,,,A*43
,1512993521000
NMEA,$GNVTG,328.00,T,,M,0.000,N,0.000,K,A*2A
,1512993521000
NMEA,$GNACCURACY,2.4*10
,1512993521000
Fix,gps,55.983357,37.209687,227.500000,0.000000,2.500000,1512993522000
NMEA,$GNGGA,115842.000,5559.0014,N,03712.5812,E,1,17,0.64,227.5,M,14.9,M,,*73
,1512993522000
NMEA,$GPGSA,A,3,03,06,23,31,26,07,22,09,29,16,,,0.93,0.64,0.67*0B
,1512993522000
NMEA,$GLGSA,A,3,78,70,79,86,71,,,,,,,,0.93,0.64,0.67*19
,1512993522000
NMEA,$BDGSA,A,3,14,10,,,,,,,,,,,0.93,0.64,0.67*1E
,1512993522000
NMEA,$GPGSV,3,1,10,23,87,159,20.8,09,54,263,23.3,03,43,148,23.7,06,37,285,17.9*73
,1512993522000
NMEA,$GPGSV,3,2,10,26,30,078,22.8,22,23,144,12.3,16,22,112,13.1,07,14,208,15.2*71
,1512993522000
NMEA,$GPGSV,3,3,10,31,14,046,13.4,29,05,015,19.4*7D
,1512993522000
NMEA,$GLGSV,2,1,8,70,82,347,20.9,79,44,046,20.4,69,33,112,,71,30,301,17.4*44
,1512993522000
NMEA,$GLGSV,2,2,8,86,24,290,18.5,87,19,349,,78,07,022,21.7,85,02,242,*5C
,1512993522000
NMEA,$BDGSV,1,1,4,14,70,150,21.0,10,48,109,13.9,17,30,050,,07,,,18.5*72
,1512993522000
NMEA,$GNRMC,115842.000,A,5559.0014,N,03712.5812,E,0.000,328.00,111217,,,A*47
,1512993522000
NMEA,$GNVTG,328.00,T,,M,0.000,N,0.000,K,A*2A
,1512993522000
NMEA,$GNACCURACY,2.5*11
,1512993522000
Fix,gps,55.983357,37.209705,227.600000,0.000000,2.600000,1512993523000
NMEA,$GNGGA,115843.000,5559.0014,N,03712.5823,E,1,17,0.64,227.6,M,14.9,M,,*73
,1512993523000
NMEA,$GPGSA,A,3,03,06,23,31,26,07,22,09,29,16,,,0.93,0.64,0.67*0B
,1512993523000
NMEA,$GLGSA,A,3,78,70,79,86,71,,,,,,,,0.93,0.64,0.67*19
,1512993523000
NMEA,$BDGSA,A,3,14,10,,,,,,,,,,,0.93,0.64,0.67*1E
,1512993523000
NMEA,$GPGSV,3,1,10,23,87,159,20.4,09,54,263,21.9,03,43,148,23.4,06,37,285,15.2*7D
,1512993523000
NMEA,$GPGSV,3,2,10,26,30,078,21.1,22,23,144,12.3,16,22,112,13.1,07,14,208,14.3*7B
,1512993523000
NMEA,$GPGSV,3,3,10,31,14,046,13.5,29,05,015,17.6*70
,1512993523000
NMEA,$GLGSV,2,1,8,70,82,347,20.3,79,44,046,19.1,69,33,112,,71,30,301,16.6*42
,1512993523000
NMEA,$GLGSV,2,2,8,86,24,290,17.0,87,19,349,,78,07,022,21.4,85,02,242,*55
,1512993523000
NMEA,$BDGSV,1,1,4,14,70,150,20.4,10,48,109,13.9,17,30,050,,07,,,17.8*75
,1512993523000
NMEA,$GNRMC,115843.000,A,5559.0014,N,03712.5823,E,0.000,328.00,111217,,,A*44
,1512993523000
NMEA,$GNVTG,328.00,T,,M,0.000,N,0.000,K,A*2A
,1512993523000
NMEA,$GNACCURACY,2.6*12
,1512993523000
Fix,gps,55.983360,37.209727,227.600000,0.000000,2.600000,1512993524000
NMEA,$GNGGA,115844.000,5559.0016,N,03712.5836,E,1,17,0.64,227.6,M,14.9,M,,*72
,1512993524000
NMEA,$GPGSA,A,3,03,06,23,31,26,07,22,09,29,16,,,0.93,0.64,0.67*0B
,1512993524000
NMEA,$GLGSA,A,3,78,70,79,86,71,,,,,,,,0.93,0.64,0.67*19
,1512993524000
NMEA,$BDGSA,A,3,14,10,,,,,,,,,,,0.93,0.64,0.67*1E
,1512993524000
NMEA,$GPGSV,3,1,10,23,87,159,20.2,09,54,263,22.7,03,43,148,23.0,06,37,285,15.2*72
,1512993524000
NMEA,$GPGSV,3,2,10,26,30,078,20.0,22,23,144,12.3,16,22,112,14.8,07,14,208,13.8*79
,1512993524000
NMEA,$GPGSV,3,3,10,31,14,046,13.5,29,05,015,21.4*77
,1512993524000
NMEA,$GLGSV,2,1,8,70,82,347,20.4,79,44,046,18.3,69,33,112,,71,30,301,16.1*41
,1512993524000
NMEA,$GLGSV,2,2,8,86,24,290,15.9,87,19,349,,78,07,022,22.4,85,02,242,*5D
,1512993524000
NMEA,$BDGSV,1,1,4,14,70,150,19.4,10,48,109,15.6,17,30,050,,07,,,18.0*71
,1512993524000
NMEA,$GNRMC,115844.000,A,5559.0016,N,03712.5836,E,0.000,328.00,111217,,,A*45
,1512993524000
NMEA,$GNVTG,328.00,T,,M,0.000,N,0.000,K,A*2A
,1512993524000
NMEA,$GNACCURACY,2.6*12
,1512993524000
Fix,gps,55.983357,37.209733,227.700000,0.000000,2.700000,1512993525000
NMEA,$GNGGA,115845.000,5559.0014,N,03712.5840,E,1,17,0.64,227.7,M,14.9,M,,*71
,1512993525000
NMEA,$GPGSA,A,3,03,06,23,31,26,07,22,09,29,16,,,0.93,0.64,0.67*0B
,1512993525000
NMEA,$GLGSA,A,3,78,70,79,86,71,,,,,,,,0.93,0.64,0.67*19
,1512993525000
NMEA,$BDGSA,A,3,14,10,,,,,,,,,,,0.93,0.64,0.67*1E
,1512993525000
NMEA,$GPGSV,3,1,10,23,87,159,20.6,09,54,263,23.3,03,43,148,22.7,06,37,285,15.2*75
,1512993525000
NMEA,$GPGSV,3,2,10,26,30,078,19.4,22,23,144,12.3,16,22,112,14.8,07,14,208,12.6*78
,1512993525000
NMEA,$GPGSV,3,3,10,31,14,046,10.9,29,05,015,21.4*78
,1512993525000
NMEA,$GLGSV,2,1,8,70,82,347,20.4,79,44,046,18.5,69,33,112,,71,30,301,12.2*40
,1512993525000
NMEA,$GLGSV,2,2,8,86,24,290,12.8,87,19,349,,78,07,022,23.0,85,02,242,*5E
,1512993525000
NMEA,$BDGSV,1,1,4,14,70,150,19.2,10,48,109,15.6,17,30,050,,07,,,18.1*76
,1512993525000
NMEA,$GNRMC,115845.000,A,5559.0014,N,03712.5840,E,0.000,328.00,111217,,,A*47
,1512993525000
NMEA,$GNVTG,328.00,T,,M,0.000,N,0.000,K,A*2A
,1512993525000
NMEA,$GNACCURACY,2.7*13
,1512993525000
Fix,gps,55.983357,37.209738,227.700000,0.000000,2.700000,1512993526000
NMEA,$GNGGA,115846.000,5559.0014,N,03712.5843,E,1,16,0.68,227.7,M,14.9,M,,*7C
,1512993526000
NMEA,$GPGSA,A,3,03,06,23,31,26,07,09,29,16,,,,0.97,0.68,0.69*0D
,1512993526000
NMEA,$GLGSA,A,3,78,70,79,86,71,,,,,,,,0.97,0.68,0.69*1F
,1512993526000
NMEA,$BDGSA,A,3,14,10,,,,,,,,,,,0.97,0.68,0.69*18
,1512993526000
NMEA,$GPGSV,3,1,10,23,87,159,21.0,09,54,263,23.5,03,43,148,23.6,06,37,285,15.4*72
,1512993526000
NMEA,$GPGSV,3,2,10,26,30,078,18.9,22,23,144,12.2,16,22,112,14.8,07,14,208,18.2*7B
,1512993526000
NMEA,$GPGSV,3,3,10,31,14,046,10.9,29,05,015,21.3*7F
,1512993526000
NMEA,$GLGSV,2,1,8,70,82,347,20.8,79,44,046,21.6,69,33,112,,71,30,301,12.2*45
,1512993526000
NMEA,$GLGSV,2,2,8,86,24,290,12.8,87,19,349,,78,07,022,23.4,85,02,242,*5A
,1512993526000
NMEA,$BDGSV,1,1,4,14,70,150,19.6,10,48,109,15.6,17,30,050,,07,,,18.6*75
,1512993526000
NMEA,$GNRMC,115846.000,A,5559.0014,N,03712.5843,E,0.000,328.00,111217,,,A*47
,1512993526000
NMEA,$GNVTG,328.00,T,,M,0.000,N,0.000,K,A*2A
,1512993526000
NMEA,$GNACCURACY,2.7*13
,1512993526000
Fix,gps,55.983353,37.209753,227.800000,0.000000,2.800000,1512993527000
NMEA,$GNGGA,115847.000,5559.0012,N,03712.5852,E,1,16,0.68,227.8,M,14.9,M,,*74
,1512993527000
NMEA,$GPGSA,A,3,03,06,23,31,26,07,09,29,16,,,,0.97,0.68,0.69*0D
,1512993527000
NMEA,$GLGSA,A,3,78,70,79,86,71,,,,,,,,0.97,0.68,0.69*1F
,1512993527000
NMEA,$BDGSA,A,3,14,10,,,,,,,,,,,0.97,0.68,0.69*18
,1512993527000
NMEA,$GPGSV,3,1,10,23,87,159,20.1,09,54,263,22.3,03,43,148,24.3,06,37,285,19.0*7F
,1512993527000
NMEA,$GPGSV,3,2,10,26,30,078,18.6,22,23,144,12.2,16,22,112,12.3,07,14,208,17.9*7D
,1512993527000
NMEA,$GPGSV,3,3,10,31,14,046,10.9,29,05,015,20.7*7A
,1512993527000
NMEA,$GLGSV,2,1,8,70,82,347,21.0,79,44,046,20.9,69,33,112,,71,30,301,11.8*4B
,1512993527000
NMEA,$GLGSV,2,2,8,86,24,290,14.0,87,19,349,,78,07,022,22.2,85,02,242,*53
,1512993527000
NMEA,$BDGSV,1,1,4,14,70,150,19.9,10,48,109,10.5,17,30,050,,07,,,18.4*7E
,1512993527000
NMEA,$GNRMC,115847.000,A,5559.0012,N,03712.5852,E,0.000,328.00,111217,,,A*40
,1512993527000
NMEA,$GNVTG,328.00,T,,M,0.000,N,0.000,K,A*2A
,1512993527000
NMEA,$GNACCURACY,2.8*1C
,1512993527000
Fix,gps,55.983345,37.209745,227.800000,0.000000,2.800000,1512993528000
NMEA,$GNGGA,115848.000,5559.0007,N,03712.5847,E,1,17,0.64,227.8,M,14.9,M,,*76
,1512993528000
NMEA,$GPGSA,A,3,03,06,23,31,26,07,22,09,29,16,,,0.93,0.64,0.67*0B
,1512993528000
NMEA,$GLGSA,A,3,78,70,79,86,71,,,,,,,,0.93,0.64,0.67*19
,1512993528000
NMEA,$BDGSA,A,3,14,10,,,,,,,,,,,0.93,0.64,0.67*1E
,1512993528000
NMEA,$GPGSV,3,1,10,23,87,159,19.5,09,54,263,27.9,03,43,148,23.8,06,37,285,19.0*72
,1512993528000
NMEA,$GPGSV,3,2,10,26,30,078,18.3,22,23,144,18.8,16,22,112,12.3,07,14,208,17.4*75
,1512993528000
NMEA,$GPGSV,3,3,10,31,14,046,20.0,29,05,015,20.2*75
,1512993528000
NMEA,$GLGSV,2,1,8,70,82,347,20.9,79,44,046,20.9,69,33,112,,71,30,301,11.8*43
,1512993528000
NMEA,$GLGSV,2,2,8,86,24,290,14.0,87,19,349,,78,07,022,22.2,85,02,242,*53
,1512993528000
NMEA,$BDGSV,1,1,4,14,70,150,24.2,10,48,109,10.5,17,30,050,,07,,,18.7*78
,1512993528000
NMEA,$GNRMC,115848.000,A,5559.0007,N,03712.5847,E,0.000,328.00,111217,,,A*4F
,1512993528000
NMEA,$GNVTG,328.00,T,,M,0.000,N,0.000,K,A*2A
,1512993528000
NMEA,$GNACCURACY,2.8*1C
,1512993528000
Fix,gps,55.983337,37.209743,227.900000,0.000000,2.800000,1512993529000
NMEA,$GNGGA,115849.000,5559.0002,N,03712.5846,E,1,17,0.64,227.9,M,14.9,M,,*72
,1512993529000
NMEA,$GPGSA,A,3,03,06,23,31,26,07,22,09,29,16,,,0.93,0.64,0.67*0B
,1512993529000
NMEA,$GLGSA,A,3,78,70,79,86,71,,,,,,,,0.93,0.64,0.67*19
,1512993529000
NMEA,$BDGSA,A,3,14,10,,,,,,,,,,,0.93,0.64,0.67*1E
,1512993529000
NMEA,$GPGSV,3,1,10,23,87,159,19.6,09,54,263,27.9,03,43,148,23.6,06,37,285,17.9*78
,1512993529000
NMEA,$GPGSV,3,2,10,26,30,078,19.4,22,23,144,18.8,16,22,112,12.3,07,14,208,22.9*78
,1512993529000
NMEA,$GPGSV,3,3,10,31,14,046,20.0,29,05,015,21.7*71
,1512993529000
NMEA,$GLGSV,2,1,8,70,82,347,20.9,79,44,046,20.8,69,33,112,,71,30,301,11.8*42
,1512993529000
NMEA,$GLGSV,2,2,8,86,24,290,14.0,87,19,349,,78,06,022,22.1,85,02,242,*51
,1512993529000
NMEA,$BDGSV,1,1,4,14,70,150,24.2,10,48,109,10.5,17,30,050,,07,,,19.5*7B
,1512993529000
NMEA,$GNRMC,115849.000,A,5559.0002,N,03712.5846,E,0.000,328.00,111217,,,A*4A
,1512993529000
NMEA,$GNVTG,328.00,T,,M,0.000,N,0.000,K,A*2A
,1512993529000
NMEA,$GNACCURACY,2.8*1C
,1512993529000
Fix,gps,55.983340,37.209740,227.900000,0.000000,2.800000,1512993530000
NMEA,$GNGGA,115850.000,5559.0004,N,03712.5844,E,1,17,0.64,227.9,M,14.9,M,,*7E
,1512993530000
NMEA,$GPGSA,A,3,03,06,23,31,26,07,22,09,29,16,,,0.93,0.64,0.67*0B
,1512993530000
NMEA,$GLGSA,A,3,78,70,79,86,71,,,,,,,,0.93,0.64,0.67*19
,1512993530000
NMEA,$BDGSA,A,3,14,10,,,,,,,,,,,0.93,0.64,0.67*1E
,1512993530000
NMEA,$GPGSV,3,1,10,23,87,159,19.6,09,54,263,18.7,03,43,148,22.0,06,37,285,17.2*76
,1512993530000
NMEA,$GPGSV,3,2,10,26,30,078,20.1,22,23,144,18.8,16,22,112,12.7,07,14,208,22.9*73
,1512993530000
NMEA,$GPGSV,3,3,10,31,14,046,20.0,29,05,015,22.6*73
,1512993530000
NMEA,$GLGSV,2,1,8,70,82,347,20.3,79,44,045,20.8,69,33,112,,71,30,301,15.1*46
,1512993530000
NMEA,$GLGSV,2,2,8,86,24,290,14.5,87,19,349,,78,06,022,21.1,85,02,242,*57
,1512993530000
NMEA,$BDGSV,1,1,4,14,70,150,23.0,10,48,109,15.0,17,30,050,,07,,,19.2*79
,1512993530000
NMEA,$GNRMC,115850.000,A,5559.0004,N,03712.5844,E,0.000,328.00,111217,,,A*46
,1512993530000
NMEA,$GNVTG,328.00,T,,M,0.000,N,0.000,K,A*2A
,1512993530000
NMEA,$GNACCURACY,2.8*1C
,1512993530000
Fix,gps,55.983338,37.209742,228.000000,0.000000,2.900000,1512993531000
NMEA,$GNGGA,115851.000,5559.0003,N,03712.5845,E,1,15,0.70,228.0,M,14.9,M,,*78
,1512993531000
NMEA,$GPGSA,A,3,03,06,23,31,26,07,09,29,16,,,,0.99,0.70,0.70*02
,1512993531000
NMEA,$GLGSA,A,3,78,70,86,71,,,,,,,,,0.99,0.70,0.70*1E
,1512993531000
NMEA,$BDGSA,A,3,14,10,,,,,,,,,,,0.99,0.70,0.70*17
,1512993531000
NMEA,$GPGSV,3,1,10,23,87,159,19.7,09,54,263,18.7,03,43,148,20.9,06,37,285,16.7*78
,1512993531000
NMEA,$GPGSV,3,2,10,26,30,078,20.0,22,23,144,10.7,16,22,112,12.7,07,14,208,22.9*75
,1512993531000
NMEA,$GPGSV,3,3,10,31,14,046,18.1,29,05,015,23.2*7C
,1512993531000
NMEA,$GLGSV,2,1,8,70,82,347,20.0,79,44,045,12.1,69,33,112,,71,30,301,15.1*4D
,1512993531000
NMEA,$GLGSV,2,2,8,86,24,290,15.4,87,19,349,,78,06,022,21.2,85,02,242,*54
,1512993531000
NMEA,$BDGSV,1,1,4,14,70,150,23.9,10,48,109,15.0,17,30,050,,07,,,19.8*7A
,1512993531000
NMEA,$GNRMC,115851.000,A,5559.0003,N,03712.5845,E,0.000,328.00,111217,,,A*41
,1512993531000
NMEA,$GNVTG,328.00,T,,M,0.000,N,0.000,K,A*2A
,1512993531000
NMEA,$GNACCURACY,2.9*1D
,1512993531000
Fix,gps,55.983338,37.209737,228.000000,0.000000,2.900000,1512993532000
NMEA,$GNGGA,115852.000,5559.0003,N,03712.5842,E,1,15,0.70,228.0,M,14.9,M,,*7C
,1512993532000
NMEA,$GPGSA,A,3,03,06,23,31,26,07,09,29,16,,,,0.99,0.70,0.70*02
,1512993532000
NMEA,$GLGSA,A,3,78,70,86,71,,,,,,,,,0.99,0.70,0.70*1E
,1512993532000
NMEA,$BDGSA,A,3,14,10,,,,,,,,,,,0.99,0.70,0.70*17
,1512993532000
NMEA,$GPGSV,3,1,10,23,87,159,13.1,09,54,263,19.0,03,43,148,21.8,06,37,285,16.0*75
,1512993532000
NMEA,$GPGSV,3,2,10,26,30,078,19.9,22,23,144,,16,22,112,11.2,07,14,208,12.0*62
,1512993532000
NMEA,$GPGSV,3,3,10,31,14,046,16.9,29,05,015,24.6*79
,1512993532000
NMEA,$GLGSV,2,1,8,70,82,347,19.8,79,44,045,12.1,69,33,112,,71,30,301,14.2*4D
,1512993532000
NMEA,$GLGSV,2,2,8,86,24,290,15.4,87,19,349,,78,06,022,21.2,85,02,242,*54
,1512993532000
NMEA,$BDGSV,1,1,4,14,70,150,24.5,10,48,109,15.2,17,30,050,,07,,,19.6*7D
,1512993532000
NMEA,$GNRMC,115852.000,A,5559.0003,N,03712.5842,E,0.000,328.00,111217,,,A*45
,1512993532000
NMEA,$GNVTG,328.00,T,,M,0.000,N,0.000,K,A*2A
,1512993532000
NMEA,$GNACCURACY,2.9*1D
,1512993532000
Fix,gps,55.983337,37.209728,228.000000,0.000000,2.900000,1512993533000
NMEA,$GNGGA,115853.000,5559.0002,N,03712.5837,E,1,15,0.70,228.0,M,14.9,M,,*7E
,1512993533000
NMEA,$GPGSA,A,3,03,06,23,31,26,07,09,29,16,,,,0.99,0.70,0.70*02
,1512993533000
NMEA,$GLGSA,A,3,78,70,86,71,,,,,,,,,0.99,0.70,0.70*1E
,1512993533000
NMEA,$BDGSA,A,3,14,10,,,,,,,,,,,0.99,0.70,0.70*17
,1512993533000
NMEA,$GPGSV,3,1,10,23,87,159,13.1,09,54,263,19.3,03,43,148,22.4,06,37,285,15.6*7C
,1512993533000
NMEA,$GPGSV,3,2,10,26,30,078,19.9,22,23,144,,16,22,112,11.2,07,14,208,12.0*62
,1512993533000
NMEA,$GPGSV,3,3,10,31,14,046,16.1,29,05,015,25.6*70
,1512993533000
NMEA,$GLGSV,2,1,8,70,82,347,19.7,79,44,045,12.1,69,33,112,,71,30,301,14.2*42
,1512993533000
NMEA,$GLGSV,2,2,8,86,24,290,15.4,87,19,349,,78,06,022,21.0,85,02,242,*56
,1512993533000
NMEA,$BDGSV,1,1,4,14,70,150,24.9,10,48,109,15.4,17,30,050,,07,,,19.4*75
,1512993533000
NMEA,$GNRMC,115853.000,A,5559.0002,N,03712.5837,E,0.000,328.00,111217,,,A*47
,1512993533000
NMEA,$GNVTG,328.00,T,,M,0.000,N,0.000,K,A*2A
,1512993533000
NMEA,$GNACCURACY,2.9*1D
,1512993533000
Fix,gps,55.983335,37.209742,228.000000,0.000000,2.900000,1512993534000
NMEA,$GNGGA,115854.000,5559.0001,N,03712.5845,E,1,16,0.68,228.0,M,14.9,M,,*75
,1512993534000
NMEA,$GPGSA,A,3,03,06,23,31,26,07,09,29,16,,,,0.97,0.68,0.69*0D
,1512993534000
NMEA,$GLGSA,A,3,78,70,79,86,71,,,,,,,,0.97,0.68,0.69*1F
,1512993534000
NMEA,$BDGSA,A,3,14,10,,,,,,,,,,,0.97,0.68,0.69*18
,1512993534000
NMEA,$GPGSV,3,1,10,23,87,159,20.1,09,54,263,24.3,03,43,148,26.1,06,37,285,15.9*7C
,1512993534000
NMEA,$GPGSV,3,2,10,26,30,078,26.5,22,23,144,,16,22,112,11.2,07,14,208,12.0*62
,1512993534000
NMEA,$GPGSV,3,3,10,31,14,046,15.8,29,05,015,24.6*7B
,1512993534000
NMEA,$GLGSV,2,1,8,70,82,347,22.0,79,44,045,15.7,69,33,112,,71,30,301,14.2*4C
,1512993534000
NMEA,$GLGSV,2,2,8,86,24,290,15.4,87,19,349,,78,06,022,20.8,85,02,242,*5F
,1512993534000
NMEA,$BDGSV,1,1,4,14,70,150,24.7,10,48,109,15.5,17,30,050,,07,,,19.2*7C
,1512993534000
NMEA,$GNRMC,115854.000,A,5559.0001,N,03712.5845,E,0.000,328.00,111217,,,A*46
,1512993534000
NMEA,$GNVTG,328.00,T,,M,0.000,N,0.000,K,A*2A
,1512993534000
NMEA,$GNACCURACY,2.9*1D
,1512993534000
Fix,gps,55.983320,37.209748,228.000000,0.000000,3.000000,1512993535000
NMEA,$GNGGA,115855.000,5558.9992,N,03712.5849,E,1,16,0.68,228.0,M,14.9,M,,*73
,1512993535000
NMEA,$GPGSA,A,3,03,06,23,31,26,07,09,29,16,,,,0.97,0.68,0.69*0D
,1512993535000
NMEA,$GLGSA,A,3,78,70,79,86,71,,,,,,,,0.97,0.68,0.69*1F
,1512993535000
NMEA,$BDGSA,A,3,14,10,,,,,,,,,,,0.97,0.68,0.69*18
,1512993535000
NMEA,$GPGSV,3,1,10,23,87,159,20.1,09,54,263,24.3,03,43,148,25.6,06,37,285,16.5*77
,1512993535000
NMEA,$GPGSV,3,2,10,26,30,078,25.7,22,23,144,,16,22,112,13.6,07,14,208,15.2*60
,1512993535000
NMEA,$GPGSV,3,3,10,31,14,046,15.6,29,05,015,24.0*73
,1512993535000
NMEA,$GLGSV,2,1,8,70,82,347,22.0,79,44,045,15.7,69,33,112,,71,30,301,14.4*4A
,1512993535000
NMEA,$GLGSV,2,2,8,86,24,290,15.2,87,19,349,,78,06,022,20.7,85,02,242,*56
,1512993535000
NMEA,$BDGSV,1,1,4,14,70,150,23.9,10,48,109,15.7,17,30,050,,07,,,19.1*74
,1512993535000
NMEA,$GNRMC,115855.000,A,5558.9992,N,03712.5849,E,0.000,328.00,111217,,,A*40
,1512993535000
NMEA,$GNVTG,328.00,T,,M,0.000,N,0.000,K,A*2A
,1512993535000
NMEA,$GNACCURACY,3.0*15
,1512993535000
Fix,gps,55.983318,37.209752,228.000000,0.000000,3.000000,1512993536000
NMEA,$GNGGA,115856.000,5558.9991,N,03712.5851,E,1,16,0.68,228.0,M,14.9,M,,*7A
,1512993536000
NMEA,$GPGSA,A,3,03,06,23,31,26,07,09,29,16,,,,0.97,0.68,0.69*0D
,1512993536000
NMEA,$GLGSA,A,3,78,70,79,86,71,,,,,,,,0.97,0.68,0.69*1F
,1512993536000
NMEA,$BDGSA,A,3,14,10,,,,,,,,,,,0.97,0.68,0.69*18
,1512993536000
NMEA,$GPGSV,3,1,10,23,87,159,18.8,09,54,263,24.3,03,43,148,25.3,06,37,285,17.0*74
,1512993536000
NMEA,$GPGSV,3,2,10,26,30,078,25.1,22,23,144,,16,22,112,13.6,07,14,208,15.2*66
,1512993536000
NMEA,$GPGSV,3,3,10,31,14,046,16.4,29,05,015,22.7*73
,1512993536000
NMEA,$GLGSV,2,1,8,70,82,347,21.8,79,44,045,15.0,69,33,112,,71,30,301,14.4*46
,1512993536000
NMEA,$GLGSV,2,2,8,86,24,290,14.9,87,19,349,,78,06,022,21.7,85,01,242,*5E
,1512993536000
NMEA,$BDGSV,1,1,4,14,70,150,23.4,10,48,109,15.8,17,30,050,,07,,,19.1*76
,1512993536000
NMEA,$GNRMC,115856.000,A,5558.9991,N,03712.5851,E,0.000,328.00,111217,,,A*49
,1512993536000
NMEA,$GNVTG,328.00,T,,M,0.000,N,0.000,K,A*2A
,1512993536000
NMEA,$GNACCURACY,3.0*15
,1512993536000
Fix,gps,55.983320,37.209750,228.000000,0.000000,3.100000,1512993537000
NMEA,$GNGGA,115857.000,5558.9992,N,03712.5850,E,1,15,0.81,228.0,M,14.9,M,,*7D
,1512993537000
NMEA,$GPGSA,A,3,03,06,23,31,26,09,29,16,,,,,1.13,0.81,0.79*01
,1512993537000
NMEA,$GLGSA,A,3,78,70,79,86,71,,,,,,,,1.13,0.81,0.79*14
,1512993537000
NMEA,$BDGSA,A,3,14,10,,,,,,,,,,,1.13,0.81,0.79*13
,1512993537000
NMEA,$GPGSV,3,1,10,23,87,159,18.8,09,54,263,24.4,03,43,148,22.9,06,37,285,16.9*76
,1512993537000
NMEA,$GPGSV,3,2,10,26,30,078,23.8,22,23,144,,16,22,112,11.7,07,14,208,11.7*6B
,1512993537000
NMEA,$GPGSV,3,3,10,31,14,046,16.9,29,05,015,21.9*73
,1512993537000
NMEA,$GLGSV,2,1,8,70,82,347,21.0,79,44,045,15.9,69,33,112,,71,30,301,14.4*47
,1512993537000
NMEA,$GLGSV,2,2,8,86,24,289,15.1,87,19,349,,78,06,022,22.4,85,01,242,*5F
,1512993537000
NMEA,$BDGSV,1,1,4,14,70,150,22.3,10,48,109,14.7,17,30,050,,07,,,18.5*7B
,1512993537000
NMEA,$GNRMC,115857.000,A,5558.9992,N,03712.5850,E,0.000,328.00,111217,,,A*4A
,1512993537000
NMEA,$GNVTG,328.00,T,,M,0.000,N,0.000,K,A*2A
,1512993537000
NMEA,$GNACCURACY,3.1*14
,1512993537000
Fix,gps,55.983310,37.209763,228.000000,0.000000,3.100000,1512993538000
NMEA,$GNGGA,115858.000,5558.9986,N,03712.5858,E,1,14,0.84,228.0,M,14.9,M,,*7B
,1512993538000
NMEA,$GPGSA,A,3,03,06,23,31,26,09,29,16,,,,,1.15,0.84,0.79*02
,1512993538000
NMEA,$GLGSA,A,3,78,70,79,86,,,,,,,,,1.15,0.84,0.79*11
,1512993538000
NMEA,$BDGSA,A,3,14,10,,,,,,,,,,,1.15,0.84,0.79*10
,1512993538000
NMEA,$GPGSV,3,1,10,23,87,159,18.8,09,54,263,22.9,03,43,148,21.4,06,37,285,16.9*73
,1512993538000
NMEA,$GPGSV,3,2,10,26,30,078,22.9,22,23,144,,16,22,112,11.7,07,14,208,11.7*6B
,1512993538000
NMEA,$GPGSV,3,3,10,31,14,046,17.3,29,05,015,21.3*72
,1512993538000
NMEA,$GLGSV,2,1,8,70,82,347,20.0,79,44,045,16.5,69,33,112,,71,30,301,12.8*43
,1512993538000
NMEA,$GLGSV,2,2,8,86,24,289,16.0,87,19,349,,78,06,022,21.6,85,01,242,*5C
,1512993538000
NMEA,$BDGSV,1,1,4,14,70,150,21.6,10,48,109,13.9,17,30,050,,07,,,19.5*75
,1512993538000
NMEA,$GNRMC,115858.000,A,5558.9986,N,03712.5858,E,0.000,328.00,111217,,,A*48
,1512993538000
NMEA,$GNVTG,328.00,T,,M,0.000,N,0.000,K,A*2A
,1512993538000
NMEA,$GNACCURACY,3.1*14
,1512993538000
Fix,gps,55.983305,37.209762,228.000000,0.000000,3.100000,1512993539000
NMEA,$GNGGA,115859.000,5558.9983,N,03712.5857,E,1,13,0.88,228.0,M,14.9,M,,*7B
,1512993539000
NMEA,$GPGSA,A,3,03,06,23,31,26,09,16,,,,,,1.19,0.88,0.79*09
,1512993539000
NMEA,$GLGSA,A,3,78,70,79,86,,,,,,,,,1.19,0.88,0.79*11
,1512993539000
NMEA,$BDGSA,A,3,14,10,,,,,,,,,,,1.19,0.88,0.79*10
,1512993539000
NMEA,$GPGSV,3,1,10,23,87,159,18.9,09,54,263,21.9,03,43,148,20.5,06,37,285,15.6*7D
,1512993539000
NMEA,$GPGSV,3,2,10,26,30,078,22.5,22,23,144,,16,22,112,11.7,07,14,208,11.7*67
,1512993539000
NMEA,$GPGSV,3,3,10,31,14,046,16.8,29,05,015,12.2*79
,1512993539000
NMEA,$GLGSV,2,1,8,70,82,347,19.4,79,44,045,16.6,69,33,112,,71,30,301,12.8*4E
,1512993539000
NMEA,$GLGSV,2,2,8,86,24,289,16.7,87,19,349,,78,06,022,25.0,85,01,242,*59
,1512993539000
NMEA,$BDGSV,1,1,4,14,70,150,20.2,10,48,109,12.3,17,30,050,,07,,,20.2*76
,1512993539000
NMEA,$GNRMC,115859.000,A,5558.9983,N,03712.5857,E,0.000,328.00,111217,,,A*43
,1512993539000
NMEA,$GNVTG,328.00,T,,M,0.000,N,0.000,K,A*2A
,1512993539000
NMEA,$GNACCURACY,3.1*14
,1512993539000
NMEA,$GNGGA,115900.000,5558.9978,N,03712.5858,E,1,14,0.86,228.0,M,14.9,M,,*74
,1512993540000
Fix,gps,55.983297,37.209763,228.000000,0.000000,3.200000,1512993540000
NMEA,$GPGSA,A,3,03,06,23,31,26,09,16,,,,,,1.17,0.86,0.79*09
,1512993540000
NMEA,$GLGSA,A,3,78,70,79,86,71,,,,,,,,1.17,0.86,0.79*17
,1512993540000
NMEA,$BDGSA,A,3,14,10,,,,,,,,,,,1.17,0.86,0.79*10
,1512993540000
NMEA,$GPGSV,3,1,10,23,87,159,19.0,09,54,263,21.2,03,43,148,19.9,06,37,285,14.7*78
,1512993540000
NMEA,$GPGSV,3,2,10,26,30,078,22.1,22,23,144,,16,22,112,15.3,07,14,208,*7A
,1512993540000
NMEA,$GPGSV,3,3,10,31,14,046,16.5,29,05,015,12.2*74
,1512993540000
NMEA,$GLGSV,2,1,8,70,82,347,19.1,79,44,045,16.7,69,33,112,,71,30,301,15.7*42
,1512993540000
NMEA,$GLGSV,2,2,8,86,24,289,15.9,87,19,349,,78,06,022,23.6,85,01,242,*54
,1512993540000
NMEA,$BDGSV,1,1,4,14,70,150,19.3,10,48,109,13.0,17,30,050,,07,,,19.9*7E
,1512993540000
NMEA,$GNRMC,115900.000,A,5558.9978,N,03712.5858,E,0.000,328.00,111217,,,A*45
,1512993540000
NMEA,$GNVTG,328.00,T,,M,0.000,N,0.000,K,A*2A
,1512993540000
NMEA,$GNACCURACY,3.2*17
,1512993540000
Fix,gps,55.983297,37.209767,228.000000,0.000000,3.200000,1512993541000
NMEA,$GNGGA,115901.000,5558.9978,N,03712.5860,E,1,15,0.81,228.0,M,14.9,M,,*78
,1512993541000
NMEA,$GPGSA,A,3,03,06,23,31,26,09,29,16,,,,,1.13,0.81,0.79*01
,1512993541000
NMEA,$GLGSA,A,3,78,70,79,86,71,,,,,,,,1.13,0.81,0.79*14
,1512993541000
NMEA,$BDGSA,A,3,14,10,,,,,,,,,,,1.13,0.81,0.79*13
,1512993541000
NMEA,$GPGSV,3,1,10,23,87,159,24.4,09,54,263,21.9,03,43,148,19.6,06,37,285,14.2*73
,1512993541000
NMEA,$GPGSV,3,2,10,26,30,078,21.5,22,23,144,,16,22,112,15.3,07,14,208,*7D
,1512993541000
NMEA,$GPGSV,3,3,10,31,14,046,17.2,29,05,015,16.1*75
,1512993541000
NMEA,$GLGSV,2,1,8,70,82,347,18.8,79,44,045,15.7,69,33,112,,71,30,301,15.7*49
,1512993541000
NMEA,$GLGSV,2,2,8,86,24,289,14.3,87,19,349,,78,06,022,22.2,85,01,242,*5A
,1512993541000
NMEA,$BDGSV,1,1,4,14,70,150,17.5,10,48,109,13.5,17,30,050,,07,,,18.1*7A
,1512993541000
NMEA,$GNRMC,115901.000,A,5558.9978,N,03712.5860,E,0.000,328.00,111217,,,A*4F
,1512993541000
NMEA,$GNVTG,328.00,T,,M,0.000,N,0.000,K,A*2A
,1512993541000
NMEA,$GNACCURACY,3.2*17
,1512993541000
Fix,gps,55.983298,37.209770,228.000000,0.000000,3.200000,1512993542000
NMEA,$GNGGA,115902.000,5558.9979,N,03712.5862,E,1,14,0.83,228.0,M,14.9,M,,*7B
,1512993542000
NMEA,$GPGSA,A,3,03,06,23,31,26,09,29,16,,,,,1.14,0.83,0.79*04
,1512993542000
NMEA,$GLGSA,A,3,78,70,79,86,71,,,,,,,,1.14,0.83,0.79*11
,1512993542000
NMEA,$BDGSA,A,3,14,,,,,,,,,,,,1.14,0.83,0.79*17
,1512993542000
NMEA,$GPGSV,3,1,10,23,87,159,24.4,09,54,263,22.3,03,43,149,17.7,06,37,285,14.2*74
,1512993542000
NMEA,$GPGSV,3,2,10,26,30,078,18.8,22,23,144,,16,22,112,15.0,07,14,208,*79
,1512993542000
NMEA,$GPGSV,3,3,10,31,14,046,18.5,29,05,015,16.1*7D
,1512993542000
NMEA,$GLGSV,2,1,8,70,82,347,21.3,79,44,045,13.8,69,33,112,,71,30,301,15.7*41
,1512993542000
NMEA,$GLGSV,2,2,8,86,24,289,16.7,87,19,349,,78,06,022,21.3,85,01,242,*5E
,1512993542000
NMEA,$BDGSV,1,1,4,14,70,150,19.9,10,48,109,11.3,17,30,050,,07,,,17.6*74
,1512993542000
NMEA,$GNRMC,115902.000,A,5558.9979,N,03712.5862,E,0.000,328.00,111217,,,A*4F
,1512993542000
NMEA,$GNVTG,328.00,T,,M,0.000,N,0.000,K,A*2A
,1512993542000
NMEA,$GNACCURACY,3.2*17
,1512993542000
Fix,gps,55.983307,37.209778,228.000000,0.000000,3.200000,1512993543000
NMEA,$GNGGA,115903.000,5558.9984,N,03712.5867,E,1,14,0.83,228.0,M,14.9,M,,*7D
,1512993543000
NMEA,$GPGSA,A,3,03,06,23,31,26,09,29,16,,,,,1.14,0.83,0.79*04
,1512993543000
NMEA,$GLGSA,A,3,78,70,79,86,71,,,,,,,,1.14,0.83,0.79*11
,1512993543000
NMEA,$BDGSA,A,3,14,,,,,,,,,,,,1.14,0.83,0.79*17
,1512993543000
NMEA,$GPGSV,3,1,10,23,87,159,23.7,09,54,263,21.6,03,43,149,16.8,06,37,285,18.7*71
,1512993543000
NMEA,$GPGSV,3,2,10,26,30,078,23.7,22,23,144,,16,22,112,15.0,07,14,208,*7E
,1512993543000
NMEA,$GPGSV,3,3,10,31,14,046,22.2,29,05,015,16.1*73
,1512993543000
NMEA,$GLGSV,2,1,8,70,82,347,21.3,79,44,045,18.6,69,33,112,,71,30,301,16.4*44
,1512993543000
NMEA,$GLGSV,2,2,8,86,24,289,18.3,87,19,349,,78,06,022,21.5,85,01,242,*52
,1512993543000
NMEA,$BDGSV,1,1,4,14,70,150,19.9,10,48,109,11.3,17,30,050,,07,,,16.0*73
,1512993543000
NMEA,$GNRMC,115903.000,A,5558.9984,N,03712.5867,E,0.000,328.00,111217,,,A*49
,1512993543000
NMEA,$GNVTG,328.00,T,,M,0.000,N,0.000,K,A*2A
,1512993543000
NMEA,$GNACCURACY,3.2*17
,1512993543000
Fix,gps,55.983307,37.209778,228.000000,0.000000,3.200000,1512993544000
NMEA,$GNGGA,115904.000,5558.9984,N,03712.5867,E,1,14,0.83,228.0,M,14.9,M,,*7A
,1512993544000
NMEA,$GPGSA,A,3,03,06,23,31,26,09,29,16,,,,,1.14,0.83,0.79*04
,1512993544000
NMEA,$GLGSA,A,3,78,70,79,86,71,,,,,,,,1.14,0.83,0.79*11
,1512993544000
NMEA,$BDGSA,A,3,14,,,,,,,,,,,,1.14,0.83,0.79*17
,1512993544000
NMEA,$GPGSV,3,1,10,23,87,159,23.3,09,54,263,21.2,03,43,149,17.7,06,37,285,18.7*7F
,1512993544000
NMEA,$GPGSV,3,2,10,26,30,078,23.7,22,23,144,15.9,16,22,112,15.0,07,14,208,*6D
,1512993544000
NMEA,$GPGSV,3,3,10,31,14,046,22.2,29,05,015,15.3*72
,1512993544000
NMEA,$GLGSV,2,1,8,70,82,347,20.7,79,44,045,18.6,69,33,112,,71,30,301,16.8*4D
,1512993544000
NMEA,$GLGSV,2,2,8,86,24,289,18.5,87,19,349,,78,06,022,21.7,85,01,242,*56
,1512993544000
NMEA,$BDGSV,1,1,4,14,70,150,19.8,10,48,109,11.3,17,30,050,,07,,,16.9*7B
,1512993544000
NMEA,$GNRMC,115904.000,A,5558.9984,N,03712.5867,E,0.000,328.00,111217,,,A*4E
,1512993544000
NMEA,$GNVTG,328.00,T,,M,0.000,N,0.000,K,A*2A
,1512993544000
NMEA,$GNACCURACY,3.2*17
,1512993544000
NMEA,$GNGGA,115905.000,5558.9984,N,03712.5867,E,1,13,0.92,228.0,M,14.9,M,,*7C
,1512993545000
Fix,gps,55.983307,37.209778,228.000000,0.000000,3.300000,1512993545000
NMEA,$GPGSA,A,3,03,06,23,31,26,09,29,,,,,,1.23,0.92,0.83*02
,1512993545000
NMEA,$GLGSA,A,3,78,70,79,86,71,,,,,,,,1.23,0.92,0.83*10
,1512993545000
NMEA,$BDGSA,A,3,14,,,,,,,,,,,,1.23,0.92,0.83*16
,1512993545000
NMEA,$GPGSV,3,1,10,23,87,159,23.0,09,54,263,20.9,03,43,149,25.3,06,37,284,14.3*7A
,1512993545000
NMEA,$GPGSV,3,2,10,26,30,078,24.1,22,23,144,15.9,16,22,112,12.2,07,14,208,*69
,1512993545000
NMEA,$GPGSV,3,3,10,31,14,046,22.2,29,05,015,14.8*78
,1512993545000
NMEA,$GLGSV,2,1,8,70,82,347,20.3,79,44,045,18.6,69,33,112,,71,30,301,16.4*45
,1512993545000
NMEA,$GLGSV,2,2,8,86,24,289,18.6,87,19,349,,78,06,022,21.8,85,01,242,*5A
,1512993545000
NMEA,$BDGSV,1,1,4,14,70,150,19.7,10,48,109,11.7,17,30,050,,07,,,17.7*7F
,1512993545000
NMEA,$GNRMC,115905.000,A,5558.9984,N,03712.5867,E,0.000,328.00,111217,,,A*4F
,1512993545000
NMEA,$GNVTG,328.00,T,,M,0.000,N,0.000,K,A*2A
,1512993545000
NMEA,$GNACCURACY,3.3*16
,1512993545000
Fix,gps,55.983307,37.209778,228.000000,0.000000,3.300000,1512993546000
NMEA,$GNGGA,115906.000,5558.9984,N,03712.5867,E,1,14,0.77,228.0,M,14.9,M,,*73
,1512993546000
NMEA,$GPGSA,A,3,03,06,23,31,26,22,09,29,,,,,1.07,0.77,0.75*06
,1512993546000
NMEA,$GLGSA,A,3,78,70,79,86,71,,,,,,,,1.07,0.77,0.75*14
,1512993546000
NMEA,$BDGSA,A,3,14,,,,,,,,,,,,1.07,0.77,0.75*12
,1512993546000
NMEA,$GPGSV,3,1,10,23,87,159,21.5,09,54,263,20.3,03,43,149,25.3,06,37,284,14.3*77
,1512993546000
NMEA,$GPGSV,3,2,10,26,30,078,24.4,22,23,144,16.2,16,22,112,12.2,07,15,208,*65
,1512993546000
NMEA,$GPGSV,3,3,10,31,14,046,20.2,29,05,015,14.5*77
,1512993546000
NMEA,$GLGSV,2,1,8,70,82,347,19.9,79,44,045,18.6,69,33,112,,71,30,301,16.1*40
,1512993546000
NMEA,$GLGSV,2,2,8,86,24,289,18.7,87,19,349,,78,06,022,21.5,85,01,242,*56
,1512993546000
NMEA,$BDGSV,1,1,4,14,70,150,19.3,10,48,109,11.7,17,30,050,,07,,,18.5*76
,1512993546000
NMEA,$GNRMC,115906.000,A,5558.9984,N,03712.5867,E,0.000,328.00,111217,,,A*4C
,1512993546000
NMEA,$GNVTG,328.00,T,,M,0.000,N,0.000,K,A*2A
,1512993546000
NMEA,$GNACCURACY,3.3*16
,1512993546000
NMEA,$GNGGA,115907.000,5558.9984,N,03712.5867,E,1,14,0.77,228.0,M,14.9,M,,*72
,1512993547000
Fix,gps,55.983307,37.209778,228.000000,0.000000,3.300000,1512993547000
NMEA,$GPGSA,A,3,03,06,23,31,26,22,09,29,,,,,1.07,0.77,0.75*06
,1512993547000
NMEA,$GLGSA,A,3,78,70,79,86,71,,,,,,,,1.07,0.77,0.75*14
,1512993547000
NMEA,$BDGSA,A,3,14,,,,,,,,,,,,1.07,0.77,0.75*12
,1512993547000
NMEA,$GPGSV,3,1,10,23,87,159,20.4,09,54,263,19.8,03,43,149,24.0,06,37,284,14.3*74
,1512993547000
NMEA,$GPGSV,3,2,10,26,30,078,22.5,22,23,144,16.5,16,22,112,10.1,07,15,208,*64
,1512993547000
NMEA,$GPGSV,3,3,10,31,14,046,16.2,29,05,015,12.8*79
,1512993547000
NMEA,$GLGSV,2,1,8,70,82,347,19.4,79,44,045,18.6,69,33,112,,71,30,301,16.0*4C
,1512993547000
NMEA,$GLGSV,2,2,8,86,24,289,17.2,87,19,349,,78,06,022,20.8,85,01,242,*50
,1512993547000
NMEA,$BDGSV,1,1,4,14,70,150,19.0,10,48,109,11.7,17,30,050,,07,,,15.9*74
,1512993547000
NMEA,$GNRMC,115907.000,A,5558.9984,N,03712.5867,E,0.000,328.00,111217,,,A*4D
,1512993547000
NMEA,$GNVTG,328.00,T,,M,0.000,N,0.000,K,A*2A
,1512993547000
NMEA,$GNACCURACY,3.3*16
,1512993547000
Fix,gps,55.983307,37.209778,228.000000,0.000000,3.300000,1512993548000
NMEA,$GNGGA,115908.000,5558.9984,N,03712.5867,E,1,14,0.77,228.0,M,14.9,M,,*7D
,1512993548000
NMEA,$GPGSA,A,3,03,06,23,31,26,22,09,29,,,,,1.07,0.77,0.75*06
,1512993548000
NMEA,$GLGSA,A,3,78,70,79,86,71,,,,,,,,1.07,0.77,0.75*14
,1512993548000
NMEA,$BDGSA,A,3,14,,,,,,,,,,,,1.07,0.77,0.75*12
,1512993548000
NMEA,$GPGSV,3,1,10,23,87,159,19.8,09,55,263,19.6,03,43,149,23.9,06,37,284,10.8*7C
,1512993548000
NMEA,$GPGSV,3,2,10,26,30,078,21.6,22,23,144,16.6,16,22,112,10.1,07,15,208,*67
,1512993548000
NMEA,$GPGSV,3,3,10,31,14,046,16.2,29,05,015,12.8*79
,1512993548000
NMEA,$GLGSV,2,1,8,70,82,347,19.0,79,44,045,18.7,69,33,112,,71,30,301,12.3*4E
,1512993548000
NMEA,$GLGSV,2,2,8,86,24,289,16.2,87,19,349,,78,06,022,20.3,85,01,242,*5A
,1512993548000
NMEA,$BDGSV,1,1,4,14,70,150,18.9,10,48,109,10.4,17,30,050,,07,,,15.9*7E
,1512993548000
NMEA,$GNRMC,115908.000,A,5558.9984,N,03712.5867,E,0.000,328.00,111217,,,A*42
,1512993548000
NMEA,$GNVTG,328.00,T,,M,0.000,N,0.000,K,A*2A
,1512993548000
NMEA,$GNACCURACY,3.3*16
,1512993548000
Fix,gps,55.983307,37.209778,228.000000,0.000000,3.300000,1512993549000
NMEA,$GNGGA,115909.000,5558.9984,N,03712.5867,E,1,13,0.80,228.0,M,14.9,M,,*73
,1512993549000
NMEA,$GPGSA,A,3,03,06,23,26,22,09,29,,,,,,1.10,0.80,0.75*0A
,1512993549000
NMEA,$GLGSA,A,3,78,70,79,86,71,,,,,,,,1.10,0.80,0.75*1A
,1512993549000
NMEA,$BDGSA,A,3,14,,,,,,,,,,,,1.10,0.80,0.75*1C
,1512993549000
NMEA,$GPGSV,3,1,10,23,87,159,19.7,09,55,263,19.7,03,43,149,24.7,06,37,284,10.8*7B
,1512993549000
NMEA,$GPGSV,3,2,10,26,30,078,21.0,22,23,144,15.3,16,22,112,10.1,07,15,208,*67
,1512993549000
NMEA,$GPGSV,3,3,10,31,14,046,13.5,29,05,015,11.8*78
,1512993549000
NMEA,$GLGSV,2,1,8,70,82,347,19.1,79,44,045,18.8,69,33,112,,71,30,301,12.3*40
,1512993549000
NMEA,$GLGSV,2,2,8,86,24,289,15.5,87,19,349,,78,06,022,20.7,85,01,242,*5A
,1512993549000
NMEA,$BDGSV,1,1,4,14,70,150,19.4,10,48,109,10.4,17,30,050,,07,,,15.9*72
,1512993549000
NMEA,$GNRMC,115909.000,A,5558.9984,N,03712.5867,E,0.000,328.00,111217,,,A*43
,1512993549000
NMEA,$GNVTG,328.00,T,,M,0.000,N,0.000,K,A*2A
,1512993549000
NMEA,$GNACCURACY,3.3*16
,1512993549000
Fix,gps,55.983307,37.209778,228.000000,0.000000,3.400000,1512993550000
NMEA,$GNGGA,115910.000,5558.9984,N,03712.5867,E,1,13,0.80,228.0,M,14.9,M,,*7B
,1512993550000
NMEA,$GPGSA,A,3,03,06,23,26,22,09,29,,,,,,1.10,0.80,0.75*0A
,1512993550000
NMEA,$GLGSA,A,3,78,70,79,86,71,,,,,,,,1.10,0.80,0.75*1A
,1512993550000
NMEA,$BDGSA,A,3,14,,,,,,,,,,,,1.10,0.80,0.75*1C
,1512993550000
NMEA,$GPGSV,3,1,10,23,87,159,19.7,09,55,263,19.8,03,43,149,25.2,06,37,284,13.0*7B
,1512993550000
NMEA,$GPGSV,3,2,10,26,30,078,21.7,22,23,144,12.7,16,22,112,13.0,07,15,208,*61
,1512993550000
NMEA,$GPGSV,3,3,10,31,14,046,13.5,29,05,015,11.8*78
,1512993550000
NMEA,$GLGSV,2,1,8,70,82,347,19.1,79,44,045,19.9,69,33,112,,71,30,301,14.8*4D
,1512993550000
NMEA,$GLGSV,2,2,8,86,24,289,16.1,87,19,349,,78,06,022,21.1,85,01,242,*5A
,1512993550000
NMEA,$BDGSV,1,1,4,14,70,150,19.7,10,48,109,11.2,17,30,050,,07,,,15.3*7C
,1512993550000
NMEA,$GNRMC,115910.000,A,5558.9984,N,03712.5867,E,0.000,328.00,111217,,,A*4B
,1512993550000
NMEA,$GNVTG,328.00,T,,M,0.000,N,0.000,K,A*2A
,1512993550000
NMEA,$GNACCURACY,3.4*11
,1512993550000
Fix,gps,55.983307,37.209778,228.000000,0.000000,3.400000,1512993551000
NMEA,$GNGGA,115911.000,5558.9984,N,03712.5867,E,1,14,0.77,228.0,M,14.9,M,,*75
,1512993551000
NMEA,$GPGSA,A,3,03,06,23,31,26,22,09,29,,,,,1.07,0.77,0.75*06
,1512993551000
NMEA,$GLGSA,A,3,78,70,79,86,71,,,,,,,,1.07,0.77,0.75*14
,1512993551000
NMEA,$BDGSA,A,3,14,,,,,,,,,,,,1.07,0.77,0.75*12
,1512993551000
NMEA,$GPGSV,3,1,10,23,87,159,19.2,09,55,263,19.3,03,43,149,24.0,06,37,284,13.0*76
,1512993551000
NMEA,$GPGSV,3,2,10,26,30,078,22.2,22,23,144,14.4,16,22,112,13.0,07,15,208,*62
,1512993551000
NMEA,$GPGSV,3,3,10,31,14,046,14.1,29,05,015,11.8*7B
,1512993551000
NMEA,$GLGSV,2,1,8,70,82,347,19.2,79,44,045,20.6,69,33,112,,71,30,301,14.8*4B
,1512993551000
NMEA,$GLGSV,2,2,8,86,24,289,16.5,87,19,349,,78,06,022,21.3,85,01,242,*5C
,1512993551000
NMEA,$BDGSV,1,1,4,14,70,150,19.3,10,48,109,11.2,17,30,050,,07,,,15.3*78
,1512993551000
NMEA,$GNRMC,115911.000,A,5558.9984,N,03712.5867,E,0.000,328.00,111217,,,A*4A
,1512993551000
NMEA,$GNVTG,328.00,T,,M,0.000,N,0.000,K,A*2A
,1512993551000
NMEA,$GNACCURACY,3.4*11
,1512993551000
Fix,gps,55.983307,37.209778,228.000000,0.000000,3.400000,1512993552000
NMEA,$GNGGA,115912.000,5558.9984,N,03712.5867,E,1,13,0.80,228.0,M,14.9,M,,*79
,1512993552000
NMEA,$GPGSA,A,3,03,06,23,31,26,22,09,,,,,,1.10,0.80,0.76*00
,1512993552000
NMEA,$GLGSA,A,3,78,70,79,86,71,,,,,,,,1.10,0.80,0.76*19
,1512993552000
NMEA,$BDGSA,A,3,14,,,,,,,,,,,,1.10,0.80,0.76*1F
,1512993552000
NMEA,$GPGSV,3,1,10,23,87,159,19.0,09,55,263,19.0,03,43,149,22.0,06,37,284,13.0*71
,1512993552000
NMEA,$GPGSV,3,2,10,26,30,078,23.2,22,23,144,14.4,16,22,112,,07,15,208,*7F
,1512993552000
NMEA,$GPGSV,3,3,10,31,14,046,14.1,29,05,015,11.5*76
,1512993552000
NMEA,$GLGSV,2,1,8,70,82,347,19.4,79,44,045,21.1,69,33,112,,71,30,301,14.8*4B
,1512993552000
NMEA,$GLGSV,2,2,8,86,24,289,16.0,87,19,349,,78,06,022,21.5,85,01,242,*5F
,1512993552000
NMEA,$BDGSV,1,1,4,14,70,150,19.1,10,48,109,11.2,17,30,050,,07,,,15.1*78
,1512993552000
