# 
# Header Description:
# 
# Version: v2.0.0.1 Platform: 7.1.2 Manufacturer: Xiaomi Model: Mi A1
# 
# Raw,ElapsedRealtimeMillis,TimeNanos,LeapSecond,TimeUncertaintyNanos,FullBiasNanos,BiasNanos,BiasUncertaintyNanos,DriftNanosPerSecond,DriftUncertaintyNanosPerSecond,HardwareClockDiscontinuityCount,Svid,TimeOffsetNanos,State,ReceivedSvTimeNanos,ReceivedSvTimeUncertaintyNanos,Cn0DbHz,PseudorangeRateMetersPerSecond,PseudorangeRateUncertaintyMetersPerSecond,AccumulatedDeltaRangeState,AccumulatedDeltaRangeMeters,AccumulatedDeltaRangeUncertaintyMeters,CarrierFrequencyHz,CarrierCycles,CarrierPhase,CarrierPhaseUncertainty,MultipathIndicator,SnrInDb,ConstellationType,AgcDb,CarrierFrequencyHz
# 
# Fix,Provider,Latitude,Longitude,Altitude,Speed,Accuracy,(UTC)TimeInMs
# 
# Nav,Svid,Type,Status,MessageId,Sub-messageId,Data(Bytes)
# 
Fix,gps,55.983446,37.209672,221.000000,0.000000,6.068000,1512993452000
NMEA,$GPGSV,2,1,08,03,43,147,31,06,36,284,33,09,52,261,24,23,87,172,35*7A
,1512993452760
NMEA,$GPGSV,2,2,08,26,29,077,23,29,04,014,23,31,14,045,32,07,13,206,*72
,1512993452760
NMEA,$GLGSV,3,1,10,14,07,021,34,06,80,340,29,22,23,289,26,15,44,046,35*64
,1512993452761
NMEA,$GLGSV,3,2,10,05,33,111,24,07,28,299,34,09,05,184,,16,49,153,*63
,1512993452761
NMEA,$GLGSV,3,3,10,23,18,348,,21,02,241,*65
,1512993452761
NMEA,$GPGSA,A,3,03,06,07,09,23,26,29,31,,,,,0.9,0.6,0.7*3D
,1512993452762
NMEA,$GNGSA,A,3,69,70,71,78,79,86,,,,,,,0.9,0.6,0.7*25
,1512993452762
NMEA,$GPVTG,,T,,M,0.0,N,0.0,K,A*23
,1512993452762
NMEA,$GPRMC,115732.00,A,5559.006741,N,03712.580300,E,0.0,,111217,8.8,E,A*1C
,1512993452762
NMEA,$GPGGA,115732.00,5559.006741,N,03712.580300,E,1,08,0.6,205.0,M,16.0,M,,*60
,1512993452762
Fix,gps,55.983446,37.209672,221.000000,0.000000,6.068000,1512993453000
NMEA,$GPGSV,3,1,10,03,43,147,31,06,36,284,30,09,52,261,35,22,23,143,28*70
,1512993453765
NMEA,$GPGSV,3,2,10,23,87,172,35,26,29,077,25,29,04,014,24,02,19,320,*7A
,1512993453765
NMEA,$GPGSV,3,3,10,07,13,206,,16,21,111,*7C
,1512993453765
NMEA,$GLGSV,3,1,10,14,07,021,36,06,80,340,27,22,23,289,24,15,44,046,31*6E
,1512993453765
NMEA,$GLGSV,3,2,10,05,33,111,25,07,28,299,33,09,05,184,,16,49,153,*65
,1512993453765
NMEA,$GLGSV,3,3,10,23,18,348,,21,02,241,*65
,1512993453765
NMEA,$GPGSA,A,3,02,03,06,07,09,16,22,23,26,29,,,1.0,0.7,0.8*3C
,1512993453767
NMEA,$GNGSA,A,3,69,70,71,78,79,86,,,,,,,1.0,0.7,0.8*23
,1512993453767
NMEA,$GPVTG,,T,,M,0.0,N,0.0,K,A*23
,1512993453767
NMEA,$GPRMC,115733.00,A,5559.006741,N,03712.580299,E,0.0,,111217,8.8,E,A*1C
,1512993453767
NMEA,$GPGGA,115733.00,5559.006741,N,03712.580299,E,1,10,0.7,205.0,M,16.0,M,,*68
,1512993453767
Fix,gps,55.983446,37.209672,221.000000,0.000000,7.585000,1512993454000
NMEA,$GPGSV,3,1,11,02,19,320,23,03,43,147,32,06,36,284,29,09,52,261,36*7E
,1512993454766
NMEA,$GPGSV,3,2,11,16,21,111,26,22,23,143,28,23,87,172,37,26,29,077,29*7E
,1512993454767
NMEA,$GPGSV,3,3,11,29,04,014,26,31,14,045,28,07,13,206,*4A
,1512993454767
NMEA,$GLGSV,3,1,10,14,07,021,34,06,80,340,26,22,23,289,26,15,44,046,30*6E
,1512993454767
NMEA,$GLGSV,3,2,10,05,33,111,24,07,28,299,30,09,05,184,,16,49,153,*67
,1512993454767
NMEA,$GLGSV,3,3,10,23,18,348,,21,02,241,*65
,1512993454767
NMEA,$GPGSA,A,3,02,03,06,09,16,22,23,26,29,31,,,1.0,0.7,0.8*39
,1512993454768
NMEA,$GNGSA,A,3,69,70,71,78,79,86,,,,,,,1.0,0.7,0.8*23
,1512993454768
NMEA,$GPVTG,,T,,M,0.0,N,0.0,K,A*23
,1512993454768
NMEA,$GPRMC,115734.00,A,5559.006743,N,03712.580298,E,0.0,,111217,8.8,E,A*18
,1512993454768
NMEA,$GPGGA,115734.00,5559.006743,N,03712.580298,E,1,10,0.7,205.0,M,16.0,M,,*6C
,1512993454768
NMEA,$GPGSV,3,1,09,03,43,147,35,06,36,284,32,09,52,261,34,22,23,143,28*7F
,1512993455765
Fix,gps,55.983446,37.209672,221.000000,0.000000,6.068000,1512993455000
NMEA,$GPGSV,3,2,09,23,87,172,37,26,29,077,25,29,04,014,23,31,14,045,31*78
,1512993455765
NMEA,$GPGSV,3,3,09,07,13,206,*41
,1512993455765
NMEA,$GLGSV,3,1,10,14,07,021,29,06,80,340,24,22,23,289,27,15,44,046,29*69
,1512993455765
NMEA,$GLGSV,3,2,10,05,33,111,26,07,28,299,34,09,05,184,,16,49,153,*61
,1512993455765
NMEA,$GLGSV,3,3,10,23,18,348,,21,02,241,*65
,1512993455765
NMEA,$GPGSA,A,3,03,06,09,22,23,26,29,31,,,,,1.0,0.7,0.8*3C
,1512993455770
NMEA,$GNGSA,A,3,69,70,71,78,79,86,,,,,,,1.0,0.7,0.8*23
,1512993455770
NMEA,$GPVTG,,T,,M,0.0,N,0.0,K,A*23
,1512993455770
NMEA,$GPRMC,115735.00,A,5559.006743,N,03712.580297,E,0.0,,111217,8.8,E,A*16
,1512993455770
NMEA,$GPGGA,115735.00,5559.006743,N,03712.580297,E,1,08,0.7,205.0,M,16.0,M,,*6B
,1512993455770
Fix,gps,55.983446,37.209672,221.000000,0.000000,6.068000,1512993456000
NMEA,$GPGSV,3,1,10,03,43,147,38,06,36,284,28,09,52,261,35,16,21,111,25*7F
,1512993456766
NMEA,$GPGSV,3,2,10,22,23,143,32,23,87,172,38,26,29,077,25,31,14,045,28*7A
,1512993456766
NMEA,$GPGSV,3,3,10,02,19,320,,07,13,206,*72
,1512993456767
NMEA,$GLGSV,3,1,09,14,07,021,34,06,80,340,28,15,44,046,24,05,33,111,31*6D
,1512993456767
NMEA,$GLGSV,3,2,09,07,28,299,30,09,05,184,,16,49,153,,23,18,348,*6A
,1512993456767
NMEA,$GLGSV,3,3,09,21,02,241,*5A
,1512993456767
NMEA,$GPGSA,A,3,02,03,06,09,16,22,23,26,31,,,,1.0,0.7,0.8*32
,1512993456767
NMEA,$GNGSA,A,3,69,70,71,78,79,,,,,,,,1.0,0.7,0.8*2D
,1512993456768
NMEA,$GPVTG,,T,,M,0.0,N,0.0,K,A*23
,1512993456768
NMEA,$GPRMC,115736.00,A,5559.006747,N,03712.580293,E,0.0,,111217,8.8,E,A*15
,1512993456768
NMEA,$GPGGA,115736.00,5559.006747,N,03712.580293,E,1,09,0.7,205.0,M,16.0,M,,*69
,1512993456768
Fix,gps,55.983446,37.209672,221.000000,0.000000,6.068000,1512993457000
NMEA,$GPGSV,3,1,09,02,19,320,23,03,43,147,40,06,36,284,23,07,13,206,24*71
,1512993457777
NMEA,$GPGSV,3,2,09,09,52,261,32,16,21,111,28,23,87,172,34,29,04,014,23*72
,1512993457777
NMEA,$GPGSV,3,3,09,31,14,045,29*4D
,1512993457777
NMEA,$GLGSV,3,1,09,14,07,021,31,16,49,153,27,15,44,046,28,05,33,111,25*6A
,1512993457777
NMEA,$GLGSV,3,2,09,07,28,299,28,22,23,289,,09,05,184,,23,18,348,*6C
,1512993457777
NMEA,$GLGSV,3,3,09,21,02,241,*5A
,1512993457777
NMEA,$GPGSA,A,3,02,03,06,09,16,23,29,31,,,,,0.9,0.6,0.7*3B
,1512993457783
NMEA,$GNGSA,A,3,69,71,78,79,86,,,,,,,,0.9,0.6,0.7*22
,1512993457783
NMEA,$GPVTG,,T,,M,0.0,N,0.0,K,A*23
,1512993457783
NMEA,$GPRMC,115737.00,A,5559.006745,N,03712.580295,E,0.0,,111217,8.8,E,A*10
,1512993457783
NMEA,$GPGGA,115737.00,5559.006745,N,03712.580295,E,1,08,0.6,205.0,M,16.0,M,,*6C
,1512993457784
Fix,gps,55.983453,37.209672,220.000000,0.320000,6.068000,1512993458000
NMEA,$GPGSV,3,1,10,03,43,147,37,06,36,284,28,07,13,206,29,09,52,261,31*7C
,1512993458784
NMEA,$GPGSV,3,2,10,16,21,111,27,22,23,143,30,23,87,172,34,26,29,077,27*7A
,1512993458785
NMEA,$GPGSV,3,3,10,29,04,014,28,31,14,045,30*7D
,1512993458785
NMEA,$GLGSV,3,1,09,14,07,021,34,06,80,340,26,22,23,289,26,16,49,153,29*65
,1512993458785
NMEA,$GLGSV,3,2,09,05,33,111,25,23,18,348,27,07,28,299,26,09,05,184,*66
,1512993458785
NMEA,$GLGSV,3,3,09,21,02,241,*5A
,1512993458785
NMEA,$GPGSA,A,3,03,06,07,09,16,22,23,26,29,31,,,0.9,0.6,0.7*3A
,1512993458789
NMEA,$GNGSA,A,3,69,70,71,78,86,,,,,,,,0.9,0.6,0.7*2B
,1512993458789
NMEA,$GPVTG,345.7,T,345.7,M,0.6,N,1.2,K,A*26
,1512993458789
NMEA,$GPRMC,115738.00,A,5559.007198,N,03712.580335,E,0.6,345.7,111217,8.8,E,A*3E
,1512993458789
NMEA,$GPGGA,115738.00,5559.007198,N,03712.580335,E,1,10,0.6,204.0,M,16.0,M,,*67
,1512993458789
Fix,gps,55.983457,37.209670,219.000000,0.000000,4.551000,1512993459000
NMEA,$GPGSV,3,1,10,03,43,147,34,06,36,284,36,07,13,206,31,09,52,261,34*7C
,1512993459784
NMEA,$GPGSV,3,2,10,16,21,111,28,23,87,172,35,26,29,077,36,29,04,014,25*7D
,1512993459784
NMEA,$GPGSV,3,3,10,31,14,045,35,02,19,320,*73
,1512993459784
NMEA,$GLGSV,3,1,09,14,07,021,32,06,80,340,23,22,23,289,28,16,49,153,24*65
,1512993459784
NMEA,$GLGSV,3,2,09,15,44,046,29,23,18,348,24,07,28,299,26,09,05,184,*6B
,1512993459784
NMEA,$GLGSV,3,3,09,21,02,241,*5A
,1512993459784
NMEA,$GPGSA,A,3,02,03,06,07,09,16,23,26,29,31,,,0.9,0.6,0.7*38
,1512993459792
NMEA,$GNGSA,A,3,70,71,78,79,86,87,,,,,,,0.9,0.6,0.7*25
,1512993459792
NMEA,$GPVTG,,T,,M,0.0,N,0.0,K,A*23
,1512993459792
NMEA,$GPRMC,115739.00,A,5559.007407,N,03712.580226,E,0.0,,111217,8.8,E,A*12
,1512993459792
NMEA,$GPGGA,115739.00,5559.007407,N,03712.580226,E,1,10,0.6,203.0,M,16.0,M,,*61
,1512993459792
Fix,gps,55.983455,37.209660,220.000000,0.000000,4.551000,1512993460000
NMEA,$GPGSV,3,1,10,03,43,147,31,06,36,284,38,07,13,206,28,09,52,261,33*78
,1512993460796
NMEA,$GPGSV,3,2,10,22,23,143,26,23,87,172,39,26,29,077,33,29,04,014,31*7D
,1512993460796
NMEA,$GPGSV,3,3,10,31,14,045,31,02,19,320,*77
,1512993460796
NMEA,$GLGSV,2,1,07,06,80,340,32,22,23,289,31,15,44,046,32,07,28,299,36*64
,1512993460796
NMEA,$GLGSV,2,2,07,09,05,184,,05,33,111,,21,02,241,*51
,1512993460796
NMEA,$GPGSA,A,3,02,03,06,07,09,22,23,26,29,31,,,0.9,0.6,0.7*3F
,1512993460796
NMEA,$GNGSA,A,3,69,70,71,79,86,,,,,,,,0.9,0.6,0.7*2A
,1512993460797
NMEA,$GPVTG,,T,,M,0.0,N,0.0,K,A*23
,1512993460797
NMEA,$GPRMC,115740.00,A,5559.007303,N,03712.579590,E,0.0,,111217,8.8,E,A*13
,1512993460797
NMEA,$GPGGA,115740.00,5559.007303,N,03712.579590,E,1,10,0.6,204.0,M,16.0,M,,*67
,1512993460797
NMEA,$GPGSV,3,1,09,03,43,147,26,09,52,261,26,16,21,111,30,22,23,143,27*7B
,1512993461786
Fix,gps,55.983459,37.209657,220.000000,0.000000,4.551000,1512993461000
NMEA,$GPGSV,3,2,09,23,87,172,40,26,29,077,32,29,04,014,28,31,14,045,28*7D
,1512993461786
NMEA,$GPGSV,3,3,09,02,19,320,*4B
,1512993461786
NMEA,$GLGSV,3,1,09,14,07,021,30,06,80,340,28,15,44,046,31,07,28,299,28*6E
,1512993461786
NMEA,$GLGSV,3,2,09,09,05,184,,16,49,153,,05,33,111,,23,18,348,*62
,1512993461786
NMEA,$GLGSV,3,3,09,21,02,241,*5A
,1512993461786
NMEA,$GPGSA,A,3,02,03,09,16,22,23,26,29,31,,,,0.9,0.6,0.7*39
,1512993461793
NMEA,$GNGSA,A,3,69,70,71,78,79,87,,,,,,,0.9,0.6,0.7*24
,1512993461793
NMEA,$GPVTG,,T,,M,0.0,N,0.0,K,A*23
,1512993461793
NMEA,$GPRMC,115741.00,A,5559.007514,N,03712.579442,E,0.0,,111217,8.8,E,A*1C
,1512993461793
NMEA,$GPGGA,115741.00,5559.007514,N,03712.579442,E,1,09,0.6,204.0,M,16.0,M,,*60
,1512993461793
Fix,gps,55.983459,37.209657,220.000000,0.000000,4.551000,1512993462000
NMEA,$GPGSV,3,1,09,03,43,147,26,09,52,261,26,16,21,111,30,22,23,143,27*7B
,1512993462768
NMEA,$GPGSV,3,2,09,23,87,172,40,26,29,077,32,29,04,014,28,31,14,045,28*7D
,1512993462768
NMEA,$GPGSV,3,3,09,02,19,320,*4B
,1512993462768
NMEA,$GLGSV,3,1,09,14,07,021,30,06,80,340,28,15,44,046,31,07,28,299,28*6E
,1512993462768
NMEA,$GLGSV,3,2,09,09,05,184,,16,49,153,,05,33,111,,23,18,348,*62
,1512993462768
NMEA,$GLGSV,3,3,09,21,02,241,*5A
,1512993462768
NMEA,$GPGSA,A,3,02,03,09,16,22,23,26,29,31,,,,0.9,0.6,0.7*39
,1512993462770
NMEA,$GNGSA,A,3,69,70,71,78,79,87,,,,,,,0.9,0.6,0.7*24
,1512993462770
NMEA,$GPVTG,,T,,M,0.0,N,0.0,K,A*23
,1512993462770
NMEA,$GPRMC,115742.00,A,5559.007515,N,03712.579443,E,0.0,,111217,8.8,E,A*1F
,1512993462770
NMEA,$GPGGA,115742.00,5559.007515,N,03712.579443,E,1,09,0.6,204.0,M,16.0,M,,*63
,1512993462770
Fix,gps,55.983452,37.209660,220.000000,0.000000,4.551000,1512993463000
NMEA,$GPGSV,3,1,11,03,43,147,31,06,36,284,29,07,13,206,23,09,52,261,29*79
,1512993463775
NMEA,$GPGSV,3,2,11,16,21,111,22,22,23,143,29,23,87,172,31,26,29,077,26*72
,1512993463776
NMEA,$GPGSV,3,3,11,29,04,014,21,31,14,045,28,02,19,320,*47
,1512993463776
NMEA,$GLGSV,2,1,07,14,07,021,20,06,80,340,24,15,44,046,28,07,28,299,28*64
,1512993463776
NMEA,$GLGSV,2,2,07,09,05,184,,23,18,348,,21,02,241,*52
,1512993463776
NMEA,$GPGSA,A,3,02,03,06,07,09,16,22,23,26,29,31,,1.0,0.6,0.7*30
,1512993463781
NMEA,$GNGSA,A,3,70,71,78,79,87,,,,,,,,1.0,0.6,0.7*23
,1512993463782
NMEA,$GPVTG,,T,,M,0.0,N,0.0,K,A*23
,1512993463782
NMEA,$GPRMC,115743.00,A,5559.007137,N,03712.579580,E,0.0,,111217,8.8,E,A*14
,1512993463782
NMEA,$GPGGA,115743.00,5559.007137,N,03712.579580,E,1,11,0.6,204.0,M,16.0,M,,*61
,1512993463782
NMEA,$GPGSV,3,1,10,03,43,147,27,06,36,284,26,09,52,261,30,16,21,111,26*79
,1512993464779
Fix,gps,55.983446,37.209657,219.000000,0.000000,4.551000,1512993464000
NMEA,$GPGSV,3,2,10,22,23,143,30,23,87,172,32,26,29,077,28,29,04,014,25*7E
,1512993464779
NMEA,$GPGSV,3,3,10,31,14,045,30,02,19,320,*76
,1512993464779
NMEA,$GLGSV,3,1,09,06,80,340,25,15,44,046,30,05,33,111,24,07,28,299,30*6B
,1512993464779
NMEA,$GLGSV,3,2,09,22,23,289,,09,05,184,,16,49,153,,23,18,348,*64
,1512993464779
NMEA,$GLGSV,3,3,09,21,02,241,*5A
,1512993464779
NMEA,$GPGSA,A,3,03,06,09,16,22,23,26,29,31,,,,1.0,0.6,0.7*35
,1512993464781
NMEA,$GNGSA,A,3,69,70,71,79,86,87,,,,,,,1.0,0.6,0.7*2D
,1512993464781
NMEA,$GPVTG,,T,,M,0.0,N,0.0,K,A*23
,1512993464782
NMEA,$GPRMC,115744.00,A,5559.006767,N,03712.579402,E,0.0,,111217,8.8,E,A*1A
,1512993464782
NMEA,$GPGGA,115744.00,5559.006767,N,03712.579402,E,1,09,0.6,203.0,M,16.0,M,,*61
,1512993464782
Fix,gps,55.983443,37.209657,218.000000,0.000000,4.551000,1512993465000
NMEA,$GPGSV,3,1,09,03,43,147,30,06,36,284,32,09,52,261,30,22,23,143,26*70
,1512993465773
NMEA,$GPGSV,3,2,09,23,87,172,34,29,04,014,30,31,14,045,28,02,19,320,*72
,1512993465773
NMEA,$GPGSV,3,3,09,07,13,206,*41
,1512993465773
NMEA,$GLGSV,2,1,07,06,80,340,23,14,07,021,,22,23,289,,09,05,184,*6B
,1512993465773
NMEA,$GLGSV,2,2,07,16,49,153,,23,18,348,,21,02,241,*5E
,1512993465773
NMEA,$GPGSA,A,3,03,06,07,09,22,23,29,31,,,,,1.0,0.7,0.7*30
,1512993465774
NMEA,$GNGSA,A,3,70,78,86,87,,,,,,,,,1.0,0.7,0.7*24
,1512993465775
NMEA,$GPVTG,,T,,M,0.0,N,0.0,K,A*23
,1512993465775
NMEA,$GPRMC,115745.00,A,5559.006606,N,03712.579409,E,0.0,,111217,8.8,E,A*16
,1512993465775
NMEA,$GPGGA,115745.00,5559.006606,N,03712.579409,E,1,08,0.7,202.0,M,16.0,M,,*6C
,1512993465775
Fix,gps,55.983444,37.209660,218.000000,0.000000,4.551000,1512993466000
NMEA,$GPGSV,3,1,10,03,43,147,32,06,36,284,31,07,13,206,23,09,52,261,30*7A
,1512993466766
NMEA,$GPGSV,3,2,10,23,87,172,31,26,29,077,26,29,04,014,28,31,14,045,28*76
,1512993466767
NMEA,$GPGSV,3,3,10,02,19,320,,16,21,111,*76
,1512993466767
NMEA,$GLGSV,3,1,10,14,07,021,29,06,80,340,23,15,44,046,23,22,23,289,*61
,1512993466767
NMEA,$GLGSV,3,2,10,09,05,184,,16,49,153,,05,33,111,,23,18,348,*6A
,1512993466767
NMEA,$GLGSV,3,3,10,21,02,241,,07,28,299,*6D
,1512993466767
NMEA,$GPGSA,A,3,03,06,07,09,16,23,26,29,31,,,,1.0,0.7,0.7*33
,1512993466767
NMEA,$GNGSA,A,3,69,70,71,78,79,86,,,,,,,1.0,0.7,0.7*2C
,1512993466768
NMEA,$GPVTG,,T,,M,0.0,N,0.0,K,A*23
,1512993466768
NMEA,$GPRMC,115746.00,A,5559.006638,N,03712.579623,E,0.0,,111217,8.8,E,A*12
,1512993466768
NMEA,$GPGGA,115746.00,5559.006638,N,03712.579623,E,1,09,0.7,202.0,M,16.0,M,,*69
,1512993466768
Fix,gps,55.983443,37.209660,218.000000,0.000000,4.551000,1512993467000
NMEA,$GPGSV,3,1,10,03,43,147,33,07,13,206,28,09,52,261,40,16,21,111,28*77
,1512993467764
NMEA,$GPGSV,3,2,10,22,23,143,27,23,87,172,40,26,29,077,30,29,04,014,33*73
,1512993467764
NMEA,$GPGSV,3,3,10,31,14,045,26,02,19,320,*71
,1512993467764
NMEA,$GLGSV,3,1,09,06,80,340,31,22,23,289,29,15,44,046,31,09,05,184,*69
,1512993467764
NMEA,$GLGSV,3,2,09,16,49,153,,05,33,111,,23,18,348,,21,02,241,*65
,1512993467764
NMEA,$GLGSV,3,3,09,07,28,299,*53
,1512993467764
NMEA,$GPGSA,A,3,03,07,09,16,22,23,26,29,31,,,,1.0,0.7,0.7*35
,1512993467765
NMEA,$GNGSA,A,3,69,70,71,79,86,,,,,,,,1.0,0.7,0.7*23
,1512993467765
NMEA,$GPVTG,,T,,M,0.0,N,0.0,K,A*23
,1512993467765
NMEA,$GPRMC,115747.00,A,5559.006551,N,03712.579604,E,0.0,,111217,8.8,E,A*1A
,1512993467765
NMEA,$GPGGA,115747.00,5559.006551,N,03712.579604,E,1,09,0.7,202.0,M,16.0,M,,*61
,1512993467765
Fix,gps,55.983441,37.209660,218.000000,0.000000,4.551000,1512993468000
NMEA,$GPGSV,3,1,11,03,43,147,32,06,36,284,27,07,13,206,25,09,52,261,40*7D
,1512993468769
NMEA,$GPGSV,3,2,11,16,21,111,28,22,23,143,28,23,87,172,39,26,29,077,32*74
,1512993468769
NMEA,$GPGSV,3,3,11,29,04,014,31,31,14,045,26,02,19,320,*48
,1512993468769
NMEA,$GLGSV,3,1,10,14,07,021,23,06,80,340,31,22,23,289,28,16,49,153,25*6F
,1512993468769
NMEA,$GLGSV,3,2,10,15,44,046,31,05,33,111,27,09,05,184,,23,18,348,*66
,1512993468769
NMEA,$GLGSV,3,3,10,21,02,241,,07,28,299,*6D
,1512993468769
NMEA,$GPGSA,A,3,03,06,07,09,16,22,23,26,29,31,,,1.0,0.7,0.7*33
,1512993468770
NMEA,$GNGSA,A,3,69,70,71,78,79,86,,,,,,,1.0,0.7,0.7*2C
,1512993468771
NMEA,$GPVTG,,T,,M,0.0,N,0.0,K,A*23
,1512993468771
NMEA,$GPRMC,115748.00,A,5559.006438,N,03712.579607,E,0.0,,111217,8.8,E,A*18
,1512993468771
NMEA,$GPGGA,115748.00,5559.006438,N,03712.579607,E,1,10,0.7,202.0,M,16.0,M,,*6B
,1512993468771
Fix,gps,55.983441,37.209660,218.000000,0.000000,4.551000,1512993469000
NMEA,$GPGSV,3,1,11,03,43,147,33,06,36,284,25,07,13,206,26,09,52,261,39*73
,1512993469773
NMEA,$GPGSV,3,2,11,16,21,111,29,22,23,143,27,23,87,172,39,26,29,077,30*78
,1512993469773
NMEA,$GPGSV,3,3,11,29,04,014,30,31,14,045,27,02,19,320,*48
,1512993469773
NMEA,$GLGSV,3,1,09,06,80,340,30,22,23,289,26,16,49,153,23,15,44,046,31*6A
,1512993469774
NMEA,$GLGSV,3,2,09,05,33,111,27,09,05,184,,23,18,348,,21,02,241,*6C
,1512993469774
NMEA,$GLGSV,3,3,09,07,28,299,*53
,1512993469774
NMEA,$GPGSA,A,3,03,06,07,09,16,22,23,26,29,31,,,1.0,0.7,0.7*33
,1512993469777
NMEA,$GNGSA,A,3,69,70,71,79,86,,,,,,,,1.0,0.7,0.7*23
,1512993469777
NMEA,$GPVTG,,T,,M,0.0,N,0.0,K,A*23
,1512993469777
NMEA,$GPRMC,115749.00,A,5559.006443,N,03712.579576,E,0.0,,111217,8.8,E,A*10
,1512993469778
NMEA,$GPGGA,115749.00,5559.006443,N,03712.579576,E,1,10,0.7,202.0,M,16.0,M,,*63
,1512993469778
Fix,gps,55.983440,37.209660,218.000000,0.000000,4.551000,1512993470000
NMEA,$GPGSV,3,1,10,03,43,147,35,06,36,284,26,07,13,206,28,09,52,261,40*77
,1512993470773
NMEA,$GPGSV,3,2,10,16,21,111,29,22,23,143,24,23,87,172,39,26,29,077,29*72
,1512993470773
NMEA,$GPGSV,3,3,10,29,04,014,30,02,19,320,*7A
,1512993470773
NMEA,$GLGSV,3,1,10,06,80,340,29,22,23,289,28,16,49,153,23,15,44,046,29*6D
,1512993470773
NMEA,$GLGSV,3,2,10,05,33,111,22,07,28,299,26,14,07,021,,09,05,184,*6A
,1512993470773
NMEA,$GLGSV,3,3,10,23,18,348,,21,02,241,*65
,1512993470773
NMEA,$GPGSA,A,3,03,06,07,09,16,22,23,26,29,,,,1.0,0.7,0.7*31
,1512993470775
NMEA,$GNGSA,A,3,69,70,71,78,79,86,,,,,,,1.0,0.7,0.7*2C
,1512993470776
NMEA,$GPVTG,,T,,M,0.0,N,0.0,K,A*23
,1512993470776
NMEA,$GPRMC,115750.00,A,5559.006387,N,03712.579605,E,0.0,,111217,8.8,E,A*10
,1512993470776
NMEA,$GPGGA,115750.00,5559.006387,N,03712.579605,E,1,09,0.7,202.0,M,16.0,M,,*6B
,1512993470776
Fix,gps,55.983440,37.209660,218.000000,0.000000,4.551000,1512993471000
NMEA,$GPGSV,3,1,11,03,43,147,34,06,36,284,28,07,13,206,29,09,52,261,39*76
,1512993471774
NMEA,$GPGSV,3,2,11,16,21,111,27,22,23,143,28,23,87,172,39,26,29,077,32*7B
,1512993471774
NMEA,$GPGSV,3,3,11,29,04,014,30,02,19,320,,31,14,045,*4D
,1512993471774
NMEA,$GLGSV,3,1,09,06,80,340,31,22,23,289,29,15,44,046,30,05,33,111,24*6B
,1512993471774
NMEA,$GLGSV,3,2,09,07,28,299,26,14,07,021,,09,05,184,,23,18,348,*61
,1512993471774
NMEA,$GLGSV,3,3,09,21,02,241,*5A
,1512993471774
NMEA,$GPGSA,A,3,03,06,07,09,16,22,23,26,29,31,,,1.0,0.7,0.7*33
,1512993471774
NMEA,$GNGSA,A,3,69,70,71,78,79,86,,,,,,,1.0,0.7,0.7*2C
,1512993471775
NMEA,$GPVTG,,T,,M,0.0,N,0.0,K,A*23
,1512993471775
NMEA,$GPRMC,115751.00,A,5559.006411,N,03712.579617,E,0.0,,111217,8.8,E,A*1A
,1512993471775
NMEA,$GPGGA,115751.00,5559.006411,N,03712.579617,E,1,10,0.7,202.0,M,16.0,M,,*69
,1512993471775
Fix,gps,55.983440,37.209661,218.000000,0.000000,4.551000,1512993472000
NMEA,$GPGSV,3,1,11,03,43,147,35,06,36,284,24,07,13,206,24,09,52,261,39*76
,1512993472774
NMEA,$GPGSV,3,2,11,16,21,111,27,22,23,143,26,23,87,172,39,26,29,077,33*74
,1512993472774
NMEA,$GPGSV,3,3,11,29,04,014,31,31,14,045,25,02,19,320,*4B
,1512993472774
NMEA,$GLGSV,3,1,09,06,80,340,31,22,23,289,25,16,49,153,24,15,44,046,32*6C
,1512993472774
NMEA,$GLGSV,3,2,09,05,33,111,25,14,07,021,,09,05,184,,23,18,348,*69
,1512993472774
NMEA,$GLGSV,3,3,09,21,02,241,*5A
,1512993472774
NMEA,$GPGSA,A,3,03,06,07,09,16,22,23,26,29,31,,,1.0,0.7,0.7*33
,1512993472775
NMEA,$GNGSA,A,3,69,70,78,79,86,,,,,,,,1.0,0.7,0.7*2A
,1512993472775
NMEA,$GPVTG,,T,,M,0.0,N,0.0,K,A*23
,1512993472775
NMEA,$GPRMC,115752.00,A,5559.006410,N,03712.579630,E,0.0,,111217,8.8,E,A*1D
,1512993472775
NMEA,$GPGGA,115752.00,5559.006410,N,03712.579630,E,1,10,0.7,202.0,M,16.0,M,,*6E
,1512993472775
Fix,gps,55.983440,37.209661,218.000000,0.000000,4.551000,1512993473000
NMEA,$GPGSV,3,1,10,03,43,147,34,06,36,284,24,07,13,206,26,09,52,261,39*74
,1512993473773
NMEA,$GPGSV,3,2,10,16,21,111,26,23,87,172,40,26,29,077,33,29,04,014,31*71
,1512993473773
NMEA,$GPGSV,3,3,10,31,14,045,24,02,19,320,*73
,1512993473774
NMEA,$GLGSV,3,1,10,06,80,340,30,22,23,289,29,16,49,153,22,15,44,046,31*6C
,1512993473774
NMEA,$GLGSV,3,2,10,05,33,111,26,07,28,299,25,14,07,021,,09,05,184,*6D
,1512993473774
NMEA,$GLGSV,3,3,10,23,18,348,,21,02,241,*65
,1512993473774
NMEA,$GPGSA,A,3,03,06,07,09,16,23,26,29,31,,,,1.0,0.7,0.7*33
,1512993473775
NMEA,$GNGSA,A,3,69,70,71,78,79,86,,,,,,,1.0,0.7,0.7*2C
,1512993473776
NMEA,$GPVTG,,T,,M,0.0,N,0.0,K,A*23
,1512993473776
NMEA,$GPRMC,115753.00,A,5559.006407,N,03712.579638,E,0.0,,111217,8.8,E,A*12
,1512993473776
NMEA,$GPGGA,115753.00,5559.006407,N,03712.579638,E,1,09,0.7,202.0,M,16.0,M,,*69
,1512993473776
Fix,gps,55.983440,37.209661,218.000000,0.000000,4.551000,1512993474000
NMEA,$GPGSV,3,1,11,03,43,147,35,06,36,284,27,07,13,206,26,09,52,261,39*77
,1512993474773
NMEA,$GPGSV,3,2,11,16,21,111,28,23,87,172,38,26,29,077,31,29,04,014,32*70
,1512993474773
NMEA,$GPGSV,3,3,11,31,14,045,27,02,19,320,,22,23,143,*46
,1512993474773
NMEA,$GLGSV,3,1,09,06,80,340,30,22,23,289,27,16,49,153,25,15,44,046,30*6C
,1512993474774
NMEA,$GLGSV,3,2,09,07,28,299,22,14,07,021,,09,05,184,,23,18,348,*65
,1512993474774
NMEA,$GLGSV,3,3,09,21,02,241,*5A
,1512993474774
NMEA,$GPGSA,A,3,03,06,07,09,16,22,23,26,29,31,,,1.0,0.7,0.7*33
,1512993474774
NMEA,$GNGSA,A,3,70,71,78,79,86,,,,,,,,1.0,0.7,0.7*23
,1512993474774
NMEA,$GPVTG,,T,,M,0.0,N,0.0,K,A*23
,1512993474774
NMEA,$GPRMC,115754.00,A,5559.006407,N,03712.579646,E,0.0,,111217,8.8,E,A*1C
,1512993474774
NMEA,$GPGGA,115754.00,5559.006407,N,03712.579646,E,1,10,0.7,202.0,M,16.0,M,,*6F
,1512993474774
Fix,gps,55.983440,37.209661,218.000000,0.000000,4.551000,1512993475000
NMEA,$GPGSV,3,1,10,03,43,147,35,07,13,206,27,09,52,261,37,16,21,111,26*70
,1512993475777
NMEA,$GPGSV,3,2,10,23,87,172,37,26,29,077,31,29,04,014,30,31,14,045,30*76
,1512993475777
NMEA,$GPGSV,3,3,10,02,19,320,,22,23,143,*74
,1512993475777
NMEA,$GLGSV,3,1,09,14,07,021,23,06,80,340,28,22,23,289,26,16,49,153,26*62
,1512993475777
NMEA,$GLGSV,3,2,09,15,44,046,29,09,05,184,,05,33,111,,23,18,348,*62
,1512993475777
NMEA,$GLGSV,3,3,09,21,02,241,*5A
,1512993475777
NMEA,$GPGSA,A,3,03,07,09,16,22,23,26,29,31,,,,1.0,0.7,0.7*35
,1512993475778
NMEA,$GNGSA,A,3,69,70,79,86,,,,,,,,,1.0,0.7,0.7*25
,1512993475778
NMEA,$GPVTG,,T,,M,0.0,N,0.0,K,A*23
,1512993475778
NMEA,$GPRMC,115755.00,A,5559.006408,N,03712.579648,E,0.0,,111217,8.8,E,A*1C
,1512993475778
NMEA,$GPGGA,115755.00,5559.006408,N,03712.579648,E,1,09,0.7,202.0,M,16.0,M,,*67
,1512993475778
Fix,gps,55.983440,37.209661,218.000000,0.000000,4.551000,1512993476000
NMEA,$GPGSV,3,1,11,03,43,147,35,06,36,284,23,07,13,206,25,09,52,261,37*7E
,1512993476778
NMEA,$GPGSV,3,2,11,16,21,111,28,23,87,172,37,26,29,077,30,29,04,014,31*7D
,1512993476778
NMEA,$GPGSV,3,3,11,31,14,045,27,02,19,320,,22,23,143,*46
,1512993476778
NMEA,$GLGSV,3,1,10,14,07,021,24,06,80,340,29,22,23,289,26,16,49,153,24*6E
,1512993476779
NMEA,$GLGSV,3,2,10,15,44,046,30,09,05,184,,05,33,111,,23,18,348,*62
,1512993476779
NMEA,$GLGSV,3,3,10,21,02,241,,07,28,299,*6D
,1512993476779
NMEA,$GPGSA,A,3,03,06,07,09,16,22,23,26,29,31,,,1.0,0.7,0.7*33
,1512993476783
NMEA,$GNGSA,A,3,69,70,71,78,79,86,,,,,,,1.0,0.7,0.7*2C
,1512993476783
NMEA,$GPVTG,,T,,M,0.0,N,0.0,K,A*23
,1512993476783
NMEA,$GPRMC,115756.00,A,5559.006405,N,03712.579649,E,0.0,,111217,8.8,E,A*13
,1512993476783
NMEA,$GPGGA,115756.00,5559.006405,N,03712.579649,E,1,10,0.7,202.0,M,16.0,M,,*60
,1512993476783
Fix,gps,55.983440,37.209661,218.000000,0.000000,4.551000,1512993477000
NMEA,$GPGSV,3,1,10,03,43,147,31,07,13,206,22,09,52,261,38,16,21,111,29*71
,1512993477774
NMEA,$GPGSV,3,2,10,22,23,143,24,23,87,172,38,26,29,077,30,29,04,014,30*7C
,1512993477774
NMEA,$GPGSV,3,3,10,31,14,045,26,02,19,320,*71
,1512993477774
NMEA,$GLGSV,3,1,09,06,80,340,28,22,23,289,26,16,49,153,22,15,44,046,30*63
,1512993477774
NMEA,$GLGSV,3,2,09,05,33,111,23,09,05,184,,23,18,348,,21,02,241,*68
,1512993477774
NMEA,$GLGSV,3,3,09,07,28,299,*53
,1512993477774
NMEA,$GPGSA,A,3,03,07,09,16,22,23,26,29,31,,,,1.0,0.7,0.7*35
,1512993477779
NMEA,$GNGSA,A,3,69,70,71,79,86,,,,,,,,1.0,0.7,0.7*23
,1512993477779
NMEA,$GPVTG,,T,,M,0.0,N,0.0,K,A*23
,1512993477780
NMEA,$GPRMC,115757.00,A,5559.006404,N,03712.579652,E,0.0,,111217,8.8,E,A*19
,1512993477780
NMEA,$GPGGA,115757.00,5559.006404,N,03712.579652,E,1,09,0.7,202.0,M,16.0,M,,*62
,1512993477780
Fix,gps,55.983440,37.209661,218.000000,0.000000,4.551000,1512993478000
NMEA,$GPGSV,3,1,11,03,43,147,33,06,36,284,24,07,13,206,22,09,52,261,38*77
,1512993478766
NMEA,$GPGSV,3,2,11,16,21,111,31,22,23,143,23,23,87,172,40,26,29,077,31*7A
,1512993478766
NMEA,$GPGSV,3,3,11,29,04,014,31,31,14,045,29,02,19,320,*47
,1512993478766
NMEA,$GLGSV,3,1,10,14,07,021,25,06,80,340,29,22,23,289,25,16,49,153,24*6C
,1512993478767
NMEA,$GLGSV,3,2,10,15,44,046,31,05,33,111,27,09,05,184,,23,18,348,*66
,1512993478767
NMEA,$GLGSV,3,3,10,21,02,241,,07,28,299,*6D
,1512993478767
NMEA,$GPGSA,A,3,03,06,07,09,16,22,23,26,29,31,,,1.0,0.7,0.7*33
,1512993478768
NMEA,$GNGSA,A,3,69,70,71,78,79,86,,,,,,,1.0,0.7,0.7*2C
,1512993478769
NMEA,$GPVTG,,T,,M,0.0,N,0.0,K,A*23
,1512993478769
NMEA,$GPRMC,115758.00,A,5559.006402,N,03712.579655,E,0.0,,111217,8.8,E,A*17
,1512993478769
NMEA,$GPGGA,115758.00,5559.006402,N,03712.579655,E,1,10,0.7,202.0,M,16.0,M,,*64
,1512993478769
Fix,gps,55.983440,37.209661,218.000000,0.000000,4.551000,1512993479000
NMEA,$GPGSV,3,1,11,03,43,147,33,06,36,284,24,07,13,206,24,09,52,261,37*7E
,1512993479768
NMEA,$GPGSV,3,2,11,16,21,111,31,22,23,143,27,23,87,172,39,26,29,077,27*77
,1512993479768
NMEA,$GPGSV,3,3,11,29,04,014,31,31,14,045,31,02,19,320,*4E
,1512993479768
NMEA,$GLGSV,2,1,08,06,80,340,30,22,23,289,27,15,44,046,30,05,33,111,27*67
,1512993479768
NMEA,$GLGSV,2,2,08,09,05,184,,23,18,348,,21,02,241,,07,28,299,*62
,1512993479768
NMEA,$GPGSA,A,3,03,06,07,09,16,22,23,26,29,31,,,1.0,0.7,0.7*33
,1512993479769
NMEA,$GNGSA,A,3,69,70,71,79,86,,,,,,,,1.0,0.7,0.7*23
,1512993479769
NMEA,$GPVTG,,T,,M,0.0,N,0.0,K,A*23
,1512993479769
NMEA,$GPRMC,115759.00,A,5559.006399,N,03712.579656,E,0.0,,111217,8.8,E,A*10
,1512993479769
NMEA,$GPGGA,115759.00,5559.006399,N,03712.579656,E,1,10,0.7,202.0,M,16.0,M,,*63
,1512993479769
Fix,gps,55.983440,37.209661,218.000000,0.000000,4.551000,1512993480000
NMEA,$GPGSV,3,1,09,03,43,147,36,07,13,206,24,09,52,261,38,16,21,111,31*71
,1512993480771
NMEA,$GPGSV,3,2,09,23,87,172,39,26,29,077,29,29,04,014,30,31,14,045,28*70
,1512993480771
NMEA,$GPGSV,3,3,09,02,19,320,*4B
,1512993480771
NMEA,$GLGSV,3,1,10,06,80,340,29,22,23,289,28,16,49,153,24,15,44,046,31*63
,1512993480771
NMEA,$GLGSV,3,2,10,05,33,111,27,14,07,021,,09,05,184,,23,18,348,*63
,1512993480771
NMEA,$GLGSV,3,3,10,21,02,241,,07,28,299,*6D
,1512993480771
NMEA,$GPGSA,A,3,03,07,09,16,23,26,29,31,,,,,1.0,0.7,0.7*35
,1512993480773
NMEA,$GNGSA,A,3,69,70,71,78,79,86,,,,,,,1.0,0.7,0.7*2C
,1512993480773
NMEA,$GPVTG,,T,,M,0.0,N,0.0,K,A*23
,1512993480773
NMEA,$GPRMC,115800.00,A,5559.006398,N,03712.579657,E,0.0,,111217,8.8,E,A*13
,1512993480773
NMEA,$GPGGA,115800.00,5559.006398,N,03712.579657,E,1,08,0.7,202.0,M,16.0,M,,*69
,1512993480773
Fix,gps,55.983440,37.209661,218.000000,0.000000,4.551000,1512993481000
NMEA,$GPGSV,3,1,11,03,43,147,34,06,36,284,27,07,13,206,24,09,52,261,38*75
,1512993481773
NMEA,$GPGSV,3,2,11,16,21,111,31,22,23,143,27,23,87,172,39,26,29,077,28*78
,1512993481773
NMEA,$GPGSV,3,3,11,29,04,014,31,31,14,045,30,02,19,320,*4F
,1512993481773
NMEA,$GLGSV,3,1,10,06,80,340,29,22,23,289,26,16,49,153,23,15,44,046,31*6A
,1512993481773
NMEA,$GLGSV,3,2,10,05,33,111,26,07,28,299,22,14,07,021,,09,05,184,*6A
,1512993481773
NMEA,$GLGSV,3,3,10,23,18,348,,21,02,241,*65
,1512993481773
NMEA,$GPGSA,A,3,03,06,07,09,16,22,23,26,29,31,,,1.0,0.7,0.7*33
,1512993481773
NMEA,$GNGSA,A,3,69,70,78,79,86,,,,,,,,1.0,0.7,0.7*2A
,1512993481773
NMEA,$GPVTG,,T,,M,0.0,N,0.0,K,A*23
,1512993481773
NMEA,$GPRMC,115801.00,A,5559.006396,N,03712.579659,E,0.0,,111217,8.8,E,A*12
,1512993481773
NMEA,$GPGGA,115801.00,5559.006396,N,03712.579659,E,1,10,0.7,202.0,M,16.0,M,,*61
,1512993481774
NMEA,$GPGSV,3,1,11,03,43,147,33,06,36,284,23,07,13,206,26,09,52,261,39*75
,1512993482772
NMEA,$GPGSV,3,2,11,16,21,111,32,22,23,143,26,23,87,172,40,26,29,077,31*7C
,1512993482772
Fix,gps,55.983440,37.209661,218.000000,0.000000,4.551000,1512993482000
NMEA,$GPGSV,3,3,11,29,04,014,32,31,14,045,28,02,19,320,*45
,1512993482772
NMEA,$GLGSV,3,1,09,06,80,340,29,22,23,289,25,16,49,153,24,15,44,046,30*67
,1512993482773
NMEA,$GLGSV,3,2,09,05,33,111,26,14,07,021,,09,05,184,,23,18,348,*6A
,1512993482773
NMEA,$GLGSV,3,3,09,21,02,241,*5A
,1512993482773
NMEA,$GPGSA,A,3,03,06,07,09,16,22,23,26,29,31,,,1.0,0.7,0.7*33
,1512993482775
NMEA,$GNGSA,A,3,69,70,78,79,86,,,,,,,,1.0,0.7,0.7*2A
,1512993482775
NMEA,$GPVTG,,T,,M,0.0,N,0.0,K,A*23
,1512993482775
NMEA,$GPRMC,115802.00,A,5559.006394,N,03712.579661,E,0.0,,111217,8.8,E,A*18
,1512993482776
NMEA,$GPGGA,115802.00,5559.006394,N,03712.579661,E,1,10,0.7,202.0,M,16.0,M,,*6B
,1512993482776
Fix,gps,55.983440,37.209661,218.000000,0.000000,4.551000,1512993483000
NMEA,$GPGSV,3,1,10,03,43,147,34,07,13,206,25,09,52,261,37,16,21,111,28*7D
,1512993483773
NMEA,$GPGSV,3,2,10,22,23,143,28,23,87,172,39,26,29,077,32,29,04,014,29*7B
,1512993483773
NMEA,$GPGSV,3,3,10,31,14,045,27,02,19,320,*70
,1512993483773
NMEA,$GLGSV,3,1,09,06,80,340,27,22,23,289,25,15,44,046,30,05,33,111,24*60
,1512993483773
NMEA,$GLGSV,3,2,09,07,28,299,24,14,07,021,,09,05,184,,23,18,348,*63
,1512993483773
NMEA,$GLGSV,3,3,09,21,02,241,*5A
,1512993483773
NMEA,$GPGSA,A,3,03,07,09,16,22,23,26,29,31,,,,1.0,0.7,0.7*35
,1512993483774
NMEA,$GNGSA,A,3,69,70,71,78,79,86,,,,,,,1.0,0.7,0.7*2C
,1512993483775
NMEA,$GPVTG,,T,,M,0.0,N,0.0,K,A*23
,1512993483775
NMEA,$GPRMC,115803.00,A,5559.006396,N,03712.579661,E,0.0,,111217,8.8,E,A*1B
,1512993483775
NMEA,$GPGGA,115803.00,5559.006396,N,03712.579661,E,1,09,0.7,202.0,M,16.0,M,,*60
,1512993483775
NMEA,$GPGSV,3,1,11,03,43,147,35,06,36,284,23,07,13,206,27,09,52,261,39*72
,1512993484773
Fix,gps,55.983440,37.209661,218.000000,0.000000,4.551000,1512993484000
NMEA,$GPGSV,3,2,11,16,21,111,28,22,23,143,28,23,87,172,40,26,29,077,33*7B
,1512993484773
NMEA,$GPGSV,3,3,11,29,04,014,29,31,14,045,28,02,19,320,*4F
,1512993484773
NMEA,$GLGSV,3,1,10,06,80,340,29,22,23,289,27,16,49,153,23,15,44,046,30*6A
,1512993484773
NMEA,$GLGSV,3,2,10,05,33,111,23,07,28,299,26,14,07,021,,09,05,184,*6B
,1512993484773
NMEA,$GLGSV,3,3,10,23,18,348,,21,02,241,*65
,1512993484773
NMEA,$GPGSA,A,3,03,06,07,09,16,22,23,26,29,31,,,1.0,0.7,0.7*33
,1512993484776
NMEA,$GNGSA,A,3,69,70,71,78,79,86,,,,,,,1.0,0.7,0.7*2C
,1512993484776
NMEA,$GPVTG,,T,,M,0.0,N,0.0,K,A*23
,1512993484776
NMEA,$GPRMC,115804.00,A,5559.006396,N,03712.579661,E,0.0,,111217,8.8,E,A*1C
,1512993484777
NMEA,$GPGGA,115804.00,5559.006396,N,03712.579661,E,1,10,0.7,202.0,M,16.0,M,,*6F
,1512993484777
Fix,gps,55.983440,37.209661,218.000000,0.000000,4.551000,1512993485000
NMEA,$GPGSV,3,1,10,03,43,147,35,07,13,206,26,09,52,261,38,16,21,111,30*79
,1512993485772
NMEA,$GPGSV,3,2,10,22,23,143,28,23,87,172,39,26,29,077,31,29,04,014,31*71
,1512993485772
NMEA,$GPGSV,3,3,10,31,14,045,28,02,19,320,*7F
,1512993485772
NMEA,$GLGSV,2,1,08,14,07,021,23,06,80,340,29,22,23,289,27,15,44,046,30*6E
,1512993485772
NMEA,$GLGSV,2,2,08,05,33,111,25,09,05,184,,23,18,348,,21,02,241,*6E
,1512993485773
NMEA,$GPGSA,A,3,03,07,09,16,22,23,26,29,31,,,,1.0,0.7,0.7*35
,1512993485776
NMEA,$GNGSA,A,3,69,70,79,86,,,,,,,,,1.0,0.7,0.7*25
,1512993485776
NMEA,$GPVTG,,T,,M,0.0,N,0.0,K,A*23
,1512993485776
NMEA,$GPRMC,115805.00,A,5559.006395,N,03712.579659,E,0.0,,111217,8.8,E,A*15
,1512993485776
NMEA,$GPGGA,115805.00,5559.006395,N,03712.579659,E,1,09,0.7,202.0,M,16.0,M,,*6E
,1512993485776
Fix,gps,55.983440,37.209661,218.000000,0.000000,4.551000,1512993486000
NMEA,$GPGSV,3,1,11,03,43,147,34,06,36,284,23,07,13,206,24,09,52,261,37*7E
,1512993486772
NMEA,$GPGSV,3,2,11,16,21,111,27,22,23,143,26,23,87,172,39,26,29,077,33*74
,1512993486772
NMEA,$GPGSV,3,3,11,29,04,014,30,31,14,045,30,02,19,320,*4E
,1512993486772
NMEA,$GLGSV,2,1,08,06,80,340,29,22,23,289,26,16,49,153,27,15,44,046,31*66
,1512993486772
NMEA,$GLGSV,2,2,08,09,05,184,,23,18,348,,21,02,241,,07,28,299,*62
,1512993486772
NMEA,$GPGSA,A,3,03,06,07,09,16,22,23,26,29,31,,,1.0,0.7,0.7*33
,1512993486774
NMEA,$GNGSA,A,3,70,71,79,86,,,,,,,,,1.0,0.7,0.7*2C
,1512993486774
NMEA,$GPVTG,,T,,M,0.0,N,0.0,K,A*23
,1512993486774
NMEA,$GPRMC,115806.00,A,5559.006394,N,03712.579660,E,0.0,,111217,8.8,E,A*1D
,1512993486774
NMEA,$GPGGA,115806.00,5559.006394,N,03712.579660,E,1,10,0.7,202.0,M,16.0,M,,*6E
,1512993486774
Fix,gps,55.983440,37.209661,218.000000,0.000000,4.551000,1512993487000
NMEA,$GPGSV,3,1,10,03,43,147,32,07,13,206,24,09,52,261,38,16,21,111,29*74
,1512993487771
NMEA,$GPGSV,3,2,10,22,23,143,30,23,87,172,40,26,29,077,27,29,04,014,32*72
,1512993487771
NMEA,$GPGSV,3,3,10,31,14,045,28,02,19,320,*7F
,1512993487771
NMEA,$GLGSV,3,1,10,14,07,021,24,06,80,340,29,22,23,289,27,16,49,153,23*68
,1512993487771
NMEA,$GLGSV,3,2,10,15,44,046,30,09,05,184,,05,33,111,,23,18,348,*62
,1512993487771
NMEA,$GLGSV,3,3,10,21,02,241,,07,28,299,*6D
,1512993487771
NMEA,$GPGSA,A,3,03,07,09,16,22,23,26,29,31,,,,1.0,0.7,0.7*35
,1512993487773
NMEA,$GNGSA,A,3,69,70,71,78,79,86,,,,,,,1.0,0.7,0.7*2C
,1512993487773
NMEA,$GPVTG,,T,,M,0.0,N,0.0,K,A*23
,1512993487773
NMEA,$GPRMC,115807.00,A,5559.006391,N,03712.579660,E,0.0,,111217,8.8,E,A*19
,1512993487773
NMEA,$GPGGA,115807.00,5559.006391,N,03712.579660,E,1,09,0.7,202.0,M,16.0,M,,*62
,1512993487773
Fix,gps,55.983440,37.209661,218.000000,0.000000,4.551000,1512993488000
NMEA,$GPGSV,3,1,11,03,43,147,31,07,13,206,24,09,52,261,37,16,21,111,30*71
,1512993488772
NMEA,$GPGSV,3,2,11,22,23,143,24,23,87,172,39,26,29,077,28,29,04,014,30*75
,1512993488772
NMEA,$GPGSV,3,3,11,31,14,045,27,02,19,320,,06,36,284,*4C
,1512993488772
NMEA,$GLGSV,2,1,08,06,80,340,28,22,23,289,27,15,44,046,29,05,33,111,26*67
,1512993488772
NMEA,$GLGSV,2,2,08,09,05,184,,23,18,348,,21,02,241,,07,28,299,*62
,1512993488772
NMEA,$GPGSA,A,3,03,06,07,09,16,22,23,26,29,31,,,1.0,0.7,0.7*33
,1512993488775
NMEA,$GNGSA,A,3,69,70,71,79,86,,,,,,,,1.0,0.7,0.7*23
,1512993488775
NMEA,$GPVTG,,T,,M,0.0,N,0.0,K,A*23
,1512993488775
NMEA,$GPRMC,115808.00,A,5559.006390,N,03712.579659,E,0.0,,111217,8.8,E,A*1D
,1512993488775
NMEA,$GPGGA,115808.00,5559.006390,N,03712.579659,E,1,10,0.7,202.0,M,16.0,M,,*6E
,1512993488775
Fix,gps,55.983440,37.209661,218.000000,0.000000,4.551000,1512993489000
NMEA,$GPGSV,3,1,11,03,43,147,33,07,13,206,29,09,52,261,38,16,21,111,33*72
,1512993489773
NMEA,$GPGSV,3,2,11,22,23,143,26,23,87,172,40,26,29,077,29,29,04,014,31*79
,1512993489773
NMEA,$GPGSV,3,3,11,31,14,045,28,02,19,320,,06,36,284,*43
,1512993489773
NMEA,$GLGSV,3,1,10,14,07,021,26,06,80,340,29,22,23,289,23,15,44,046,28*6E
,1512993489773
NMEA,$GLGSV,3,2,10,05,33,111,25,09,05,184,,16,49,153,,23,18,348,*6D
,1512993489773
NMEA,$GLGSV,3,3,10,21,02,241,,07,28,299,*6D
,1512993489773
NMEA,$GPGSA,A,3,03,06,07,09,16,22,23,26,29,31,,,1.0,0.7,0.7*33
,1512993489779
NMEA,$GNGSA,A,3,69,70,71,78,79,86,,,,,,,1.0,0.7,0.7*2C
,1512993489779
NMEA,$GPVTG,,T,,M,0.0,N,0.0,K,A*23
,1512993489779
NMEA,$GPRMC,115809.00,A,5559.006388,N,03712.579660,E,0.0,,111217,8.8,E,A*1F
,1512993489779
NMEA,$GPGGA,115809.00,5559.006388,N,03712.579660,E,1,10,0.7,202.0,M,16.0,M,,*6C
,1512993489779
Fix,gps,55.983440,37.209661,218.000000,0.000000,4.551000,1512993490000
NMEA,$GPGSV,3,1,10,03,43,147,35,07,13,206,29,09,52,261,32,16,21,111,27*7A
,1512993490771
NMEA,$GPGSV,3,2,10,23,87,172,37,26,29,077,28,29,04,014,32,31,14,045,28*75
,1512993490771
NMEA,$GPGSV,3,3,10,02,19,320,,06,36,284,*7E
,1512993490771
NMEA,$GLGSV,3,1,10,14,07,021,28,06,80,340,25,22,23,289,25,15,44,046,29*6B
,1512993490771
NMEA,$GLGSV,3,2,10,05,33,111,24,07,28,299,27,09,05,184,,16,49,153,*61
,1512993490771
NMEA,$GLGSV,3,3,10,23,18,348,,21,02,241,*65
,1512993490771
NMEA,$GPGSA,A,3,03,06,07,09,16,23,26,29,31,,,,1.0,0.7,0.7*33
,1512993490775
NMEA,$GNGSA,A,3,69,70,71,78,79,86,,,,,,,1.0,0.7,0.7*2C
,1512993490776
NMEA,$GPVTG,,T,,M,0.0,N,0.0,K,A*23
,1512993490776
NMEA,$GPRMC,115810.00,A,5559.006384,N,03712.579659,E,0.0,,111217,8.8,E,A*11
,1512993490776
NMEA,$GPGGA,115810.00,5559.006384,N,03712.579659,E,1,09,0.7,202.0,M,16.0,M,,*6A
,1512993490776
Fix,gps,55.983440,37.209661,218.000000,0.000000,4.551000,1512993491000
NMEA,$GPGSV,3,1,11,03,43,147,37,06,36,284,26,07,13,206,31,09,52,261,35*7E
,1512993491771
NMEA,$GPGSV,3,2,11,16,21,111,30,23,87,172,37,26,29,077,32,29,04,014,33*74
,1512993491771
NMEA,$GPGSV,3,3,11,31,14,045,31,02,19,320,,22,23,143,*41
,1512993491771
NMEA,$GLGSV,2,1,08,14,07,021,23,06,80,340,26,15,44,046,31,05,33,111,23*62
,1512993491771
NMEA,$GLGSV,2,2,08,23,18,348,25,09,05,184,,16,49,153,,21,02,241,*67
,1512993491772
NMEA,$GPGSA,A,3,03,06,07,09,16,22,23,26,29,31,,,1.0,0.6,0.7*32
,1512993491774
NMEA,$GNGSA,A,3,69,70,78,79,,,,,,,,,1.0,0.6,0.7*25
,1512993491774
NMEA,$GPVTG,,T,,M,0.0,N,0.0,K,A*23
,1512993491775
NMEA,$GPRMC,115811.00,A,5559.006375,N,03712.579658,E,0.0,,111217,8.8,E,A*1F
,1512993491775
NMEA,$GPGGA,115811.00,5559.006375,N,03712.579658,E,1,10,0.6,202.0,M,16.0,M,,*6D
,1512993491775
Fix,gps,55.983439,37.209661,218.000000,0.000000,4.551000,1512993492000
NMEA,$GPGSV,3,1,10,03,43,147,37,07,13,206,28,09,52,261,36,16,21,111,30*7B
,1512993492773
NMEA,$GPGSV,3,2,10,23,87,172,38,26,29,077,33,29,04,014,33,31,14,045,28*71
,1512993492773
NMEA,$GPGSV,3,3,10,02,19,320,,22,23,143,*74
,1512993492773
NMEA,$GLGSV,2,1,08,06,80,340,25,15,44,046,27,23,18,348,24,22,23,289,*60
,1512993492773
NMEA,$GLGSV,2,2,08,09,05,184,,16,49,153,,21,02,241,,07,28,299,*68
,1512993492773
NMEA,$GPGSA,A,3,03,07,09,16,22,23,26,29,31,,,,1.0,0.6,0.7*34
,1512993492779
NMEA,$GNGSA,A,3,70,71,79,86,87,,,,,,,,1.0,0.6,0.7*22
,1512993492779
NMEA,$GPVTG,,T,,M,0.0,N,0.0,K,A*23
,1512993492779
NMEA,$GPRMC,115812.00,A,5559.006369,N,03712.579663,E,0.0,,111217,8.8,E,A*19
,1512993492779
NMEA,$GPGGA,115812.00,5559.006369,N,03712.579663,E,1,09,0.6,202.0,M,16.0,M,,*63
,1512993492779
Fix,gps,55.983439,37.209661,218.000000,0.000000,4.551000,1512993493000
NMEA,$GPGSV,3,1,11,03,43,147,37,06,36,284,30,07,13,206,28,09,52,261,35*71
,1512993493778
NMEA,$GPGSV,3,2,11,16,21,111,29,23,87,172,37,26,29,077,34,29,04,014,31*78
,1512993493778
NMEA,$GPGSV,3,3,11,31,14,045,30,02,19,320,,22,23,143,*40
,1512993493778
NMEA,$GLGSV,3,1,10,06,80,340,26,22,23,289,28,15,44,046,30,05,33,111,25*65
,1512993493778
NMEA,$GLGSV,3,2,10,23,18,348,25,07,28,299,29,14,07,021,,09,05,184,*61
,1512993493778
NMEA,$GLGSV,3,3,10,16,49,153,,21,02,241,*6F
,1512993493778
NMEA,$GPGSA,A,3,03,06,07,09,16,22,23,26,29,31,,,1.0,0.6,0.7*32
,1512993493784
NMEA,$GNGSA,A,3,69,70,71,78,79,86,87,,,,,,1.0,0.6,0.7*22
,1512993493784
NMEA,$GPVTG,,T,,M,0.0,N,0.0,K,A*23
,1512993493784
NMEA,$GPRMC,115813.00,A,5559.006368,N,03712.579667,E,0.0,,111217,8.8,E,A*1D
,1512993493784
NMEA,$GPGGA,115813.00,5559.006368,N,03712.579667,E,1,10,0.6,202.0,M,16.0,M,,*6F
,1512993493784
NMEA,$GPGSV,3,1,10,03,43,147,35,06,36,284,29,09,52,261,33,16,21,111,30*71
,1512993494777
Fix,gps,55.983440,37.209661,218.000000,0.000000,4.551000,1512993494000
NMEA,$GPGSV,3,2,10,22,23,143,22,23,87,172,36,26,29,077,35,29,04,014,29*79
,1512993494778
NMEA,$GPGSV,3,3,10,31,14,045,27,02,19,320,*70
,1512993494778
NMEA,$GLGSV,3,1,10,06,80,340,28,22,23,289,27,15,44,046,29,05,33,111,27*6E
,1512993494778
NMEA,$GLGSV,3,2,10,23,18,348,25,07,28,299,24,14,07,021,,09,05,184,*6C
,1512993494778
NMEA,$GLGSV,3,3,10,16,49,153,,21,02,241,*6F
,1512993494778
NMEA,$GPGSA,A,3,03,06,09,16,22,23,26,29,31,,,,1.0,0.6,0.7*35
,1512993494782
NMEA,$GNGSA,A,3,69,70,71,78,79,86,87,,,,,,1.0,0.6,0.7*22
,1512993494782
NMEA,$GPVTG,,T,,M,0.0,N,0.0,K,A*23
,1512993494782
NMEA,$GPRMC,115814.00,A,5559.006370,N,03712.579668,E,0.0,,111217,8.8,E,A*1C
,1512993494782
NMEA,$GPGGA,115814.00,5559.006370,N,03712.579668,E,1,09,0.6,202.0,M,16.0,M,,*66
,1512993494782
Fix,gps,55.983439,37.209661,218.000000,0.000000,4.551000,1512993495000
NMEA,$GPGSV,3,1,11,03,43,147,37,06,36,284,30,09,52,261,34,16,21,111,31*7C
,1512993495780
NMEA,$GPGSV,3,2,11,22,23,143,27,23,87,172,38,26,29,077,35,29,04,014,30*7B
,1512993495780
NMEA,$GPGSV,3,3,11,31,14,045,28,02,19,320,,07,13,206,*4F
,1512993495780
NMEA,$GLGSV,3,1,10,06,80,340,27,22,23,289,29,15,44,046,25,05,33,111,23*67
,1512993495780
NMEA,$GLGSV,3,2,10,23,18,348,24,07,28,299,29,14,07,021,,09,05,184,*60
,1512993495780
NMEA,$GLGSV,3,3,10,16,49,153,,21,02,241,*6F
,1512993495780
NMEA,$GPGSA,A,3,03,06,07,09,16,22,23,26,29,31,,,1.0,0.6,0.7*32
,1512993495781
NMEA,$GNGSA,A,3,69,70,71,78,79,86,87,,,,,,1.0,0.6,0.7*22
,1512993495781
NMEA,$GPVTG,,T,,M,0.0,N,0.0,K,A*23
,1512993495781
NMEA,$GPRMC,115815.00,A,5559.006368,N,03712.579669,E,0.0,,111217,8.8,E,A*15
,1512993495781
NMEA,$GPGGA,115815.00,5559.006368,N,03712.579669,E,1,10,0.6,202.0,M,16.0,M,,*67
,1512993495781
Fix,gps,55.983439,37.209661,218.000000,0.000000,4.551000,1512993496000
NMEA,$GPGSV,3,1,11,03,43,147,37,06,36,284,26,09,52,261,32,16,21,111,31*7D
,1512993496786
NMEA,$GPGSV,3,2,11,22,23,143,25,23,87,172,37,26,29,077,33,29,04,014,28*79
,1512993496786
NMEA,$GPGSV,3,3,11,31,14,045,30,02,19,320,,07,13,206,*46
,1512993496786
NMEA,$GLGSV,3,1,10,14,07,021,25,06,80,340,30,22,23,289,30,15,44,046,29*66
,1512993496786
NMEA,$GLGSV,3,2,10,05,33,111,26,23,18,348,23,07,28,299,31,09,05,184,*6F
,1512993496786
NMEA,$GLGSV,3,3,10,16,49,153,,21,02,241,*6F
,1512993496786
NMEA,$GPGSA,A,3,03,06,07,09,16,22,23,26,29,31,,,1.0,0.6,0.7*32
,1512993496789
NMEA,$GNGSA,A,3,69,70,71,78,79,86,87,,,,,,1.0,0.6,0.7*22
,1512993496789
NMEA,$GPVTG,,T,,M,0.0,N,0.0,K,A*23
,1512993496789
NMEA,$GPRMC,115816.00,A,5559.006369,N,03712.579668,E,0.0,,111217,8.8,E,A*16
,1512993496789
NMEA,$GPGGA,115816.00,5559.006369,N,03712.579668,E,1,10,0.6,202.0,M,16.0,M,,*64
,1512993496789
Fix,gps,55.983439,37.209661,218.000000,0.000000,4.551000,1512993497000
NMEA,$GPGSV,3,1,11,03,43,147,38,06,36,284,28,09,52,261,33,16,21,111,31*7D
,1512993497777
NMEA,$GPGSV,3,2,11,22,23,143,23,23,87,172,37,26,29,077,35,29,04,014,29*78
,1512993497777
NMEA,$GPGSV,3,3,11,31,14,045,31,02,19,320,,07,13,206,*47
,1512993497777
NMEA,$GLGSV,3,1,10,14,07,021,27,06,80,340,29,22,23,289,28,15,44,046,29*65
,1512993497778
NMEA,$GLGSV,3,2,10,05,33,111,25,23,18,348,26,07,28,299,29,09,05,184,*60
,1512993497778
NMEA,$GLGSV,3,3,10,16,49,153,,21,02,241,*6F
,1512993497778
NMEA,$GPGSA,A,3,03,06,07,09,16,22,23,26,29,31,,,1.0,0.6,0.7*32
,1512993497782
NMEA,$GNGSA,A,3,69,70,71,78,79,86,87,,,,,,1.0,0.6,0.7*22
,1512993497782
NMEA,$GPVTG,,T,,M,0.0,N,0.0,K,A*23
,1512993497782
NMEA,$GPRMC,115817.00,A,5559.006369,N,03712.579668,E,0.0,,111217,8.8,E,A*17
,1512993497782
NMEA,$GPGGA,115817.00,5559.006369,N,03712.579668,E,1,10,0.6,202.0,M,16.0,M,,*65
,1512993497782
Fix,gps,55.983439,37.209661,218.000000,0.000000,4.551000,1512993498000
NMEA,$GPGSV,3,1,10,03,43,147,36,06,36,284,28,09,52,261,33,16,21,111,29*7B
,1512993498783
NMEA,$GPGSV,3,2,10,23,87,172,36,26,29,077,33,29,04,014,30,31,14,045,31*74
,1512993498783
NMEA,$GPGSV,3,3,10,02,19,320,,07,13,206,*72
,1512993498783
NMEA,$GLGSV,3,1,10,14,07,021,24,06,80,340,28,22,23,289,25,15,44,046,27*64
,1512993498783
NMEA,$GLGSV,3,2,10,05,33,111,24,23,18,348,25,07,28,299,26,09,05,184,*6D
,1512993498783
NMEA,$GLGSV,3,3,10,16,49,153,,21,02,241,*6F
,1512993498783
NMEA,$GPGSA,A,3,03,06,07,09,16,23,26,29,31,,,,1.0,0.6,0.7*32
,1512993498789
NMEA,$GNGSA,A,3,69,70,71,78,79,86,87,,,,,,1.0,0.6,0.7*22
,1512993498789
NMEA,$GPVTG,,T,,M,0.0,N,0.0,K,A*23
,1512993498789
NMEA,$GPRMC,115818.00,A,5559.006369,N,03712.579668,E,0.0,,111217,8.8,E,A*18
,1512993498789
NMEA,$GPGGA,115818.00,5559.006369,N,03712.579668,E,1,09,0.6,202.0,M,16.0,M,,*62
,1512993498789
Fix,gps,55.983439,37.209661,218.000000,0.000000,4.551000,1512993499000
NMEA,$GPGSV,3,1,11,03,43,147,38,06,36,284,32,09,52,261,33,16,21,111,30*77
,1512993499781
NMEA,$GPGSV,3,2,11,23,87,172,38,26,29,077,34,29,04,014,29,31,14,045,30*75
,1512993499781
NMEA,$GPGSV,3,3,11,02,19,320,,07,13,206,,22,23,143,*44
,1512993499781
NMEA,$GLGSV,3,1,09,06,80,340,27,22,23,289,25,15,44,046,28,05,33,111,27*6A
,1512993499781
NMEA,$GLGSV,3,2,09,23,18,348,26,07,28,299,23,09,05,184,,16,49,153,*6C
,1512993499781
NMEA,$GLGSV,3,3,09,21,02,241,*5A
,1512993499781
NMEA,$GPGSA,A,3,03,06,07,09,16,22,23,26,29,31,,,1.1,0.7,0.8*3D
,1512993499782
NMEA,$GNGSA,A,3,69,70,71,79,86,87,,,,,,,1.1,0.7,0.8*22
,1512993499782
NMEA,$GPVTG,,T,,M,0.0,N,0.0,K,A*23
,1512993499782
NMEA,$GPRMC,115819.00,A,5559.006369,N,03712.579664,E,0.0,,111217,8.8,E,A*15
,1512993499782
NMEA,$GPGGA,115819.00,5559.006369,N,03712.579664,E,1,10,0.7,202.0,M,16.0,M,,*66
,1512993499782
Fix,gps,55.983439,37.209661,218.000000,0.000000,4.551000,1512993500000
NMEA,$GPGSV,3,1,11,03,43,147,34,06,36,284,33,07,13,206,25,09,52,261,32*7B
,1512993500777
NMEA,$GPGSV,3,2,11,16,21,111,32,23,87,172,32,26,29,077,34,29,04,014,29*7E
,1512993500777
NMEA,$GPGSV,3,3,11,31,14,045,25,02,19,320,,22,23,143,*44
,1512993500777
NMEA,$GLGSV,3,1,10,14,07,021,23,06,80,340,30,22,23,289,31,15,44,046,32*6B
,1512993500777
NMEA,$GLGSV,3,2,10,05,33,111,24,23,18,348,24,07,28,299,29,09,05,184,*63
,1512993500777
NMEA,$GLGSV,3,3,10,16,49,153,,21,02,241,*6F
,1512993500777
NMEA,$GPGSA,A,3,03,06,09,16,22,23,26,29,31,,,,1.0,0.6,0.7*35
,1512993500783
NMEA,$GNGSA,A,3,69,70,71,78,79,86,87,,,,,,1.0,0.6,0.7*22
,1512993500783
NMEA,$GPVTG,,T,,M,0.0,N,0.0,K,A*23
,1512993500783
NMEA,$GPRMC,115820.00,A,5559.006350,N,03712.579675,E,0.0,,111217,8.8,E,A*15
,1512993500783
NMEA,$GPGGA,115820.00,5559.006350,N,03712.579675,E,1,09,0.6,202.0,M,16.0,M,,*6F
,1512993500783
NMEA,$GPGSV,3,1,11,02,19,319,23,03,42,147,32,06,36,284,28,07,14,208,25*75
,1512993501772
Fix,gps,55.983439,37.209661,218.000000,0.000000,4.551000,1512993501000
NMEA,$GPGSV,3,2,11,09,53,261,26,16,21,111,31,23,86,161,29,26,29,077,32*7D
,1512993501772
NMEA,$GPGSV,3,3,11,29,04,014,25,31,13,045,26,22,22,143,*47
,1512993501772
NMEA,$GLGSV,3,1,10,14,07,021,23,06,80,340,24,22,23,289,26,15,44,046,32*68
,1512993501772
NMEA,$GLGSV,3,2,10,05,33,111,28,23,18,348,24,07,28,299,27,09,05,184,*61
,1512993501772
NMEA,$GLGSV,3,3,10,16,49,153,,21,02,241,*6F
,1512993501772
NMEA,$GPGSA,A,3,03,06,07,09,16,22,23,26,29,31,,,0.9,0.6,0.7*3A
,1512993501777
NMEA,$GNGSA,A,3,69,70,71,78,79,86,87,,,,,,0.9,0.6,0.7*2A
,1512993501777
NMEA,$GPVTG,,T,,M,0.0,N,0.0,K,A*23
,1512993501777
NMEA,$GPRMC,115821.00,A,5559.006332,N,03712.579638,E,0.0,,111217,8.8,E,A*19
,1512993501777
NMEA,$GPGGA,115821.00,5559.006332,N,03712.579638,E,1,10,0.6,202.0,M,16.0,M,,*6B
,1512993501778
Fix,gps,55.983439,37.209661,218.000000,0.000000,4.551000,1512993502000
NMEA,$GPGSV,2,1,08,03,42,147,35,06,36,284,36,07,14,208,26,09,53,261,35*7B
,1512993502770
NMEA,$GPGSV,2,2,08,22,22,143,28,23,86,161,32,26,29,077,24,29,04,014,24*70
,1512993502770
NMEA,$GLGSV,2,1,07,06,82,344,30,22,23,288,29,15,43,045,28,23,18,348,24*6C
,1512993502770
NMEA,$GLGSV,2,2,07,09,06,184,,16,49,151,,21,01,240,*5B
,1512993502770
NMEA,$GPGSA,A,3,03,06,07,09,22,23,26,29,,,,,0.9,0.6,0.7*3F
,1512993502771
NMEA,$GNGSA,A,3,70,79,86,87,,,,,,,,,0.9,0.6,0.7*2C
,1512993502771
NMEA,$GPVTG,,T,,M,0.0,N,0.0,K,A*23
,1512993502771
NMEA,$GPRMC,115822.00,A,5559.006331,N,03712.579638,E,0.0,,111217,8.8,E,A*19
,1512993502771
NMEA,$GPGGA,115822.00,5559.006331,N,03712.579638,E,1,08,0.6,202.0,M,16.0,M,,*62
,1512993502771
NMEA,$GPGSV,3,1,11,03,42,147,34,06,36,284,37,07,14,208,28,09,53,261,37*7E
,1512993503774
Fix,gps,55.983439,37.209661,218.000000,0.000000,4.551000,1512993503000
NMEA,$GPGSV,3,2,11,16,21,111,23,22,22,143,24,23,86,161,35,26,29,077,28*76
,1512993503774
NMEA,$GPGSV,3,3,11,29,04,014,27,31,13,045,29,02,19,319,*4D
,1512993503774
NMEA,$GLGSV,3,1,10,14,06,021,24,06,82,344,30,22,23,288,31,15,43,045,33*6F
,1512993503774
NMEA,$GLGSV,3,2,10,23,18,348,26,07,30,299,27,09,06,184,,16,49,151,*68
,1512993503774
NMEA,$GLGSV,3,3,10,05,33,111,,21,01,240,*64
,1512993503774
NMEA,$GPGSA,A,3,02,03,06,07,09,16,22,23,26,29,31,,0.9,0.6,0.7*38
,1512993503781
NMEA,$GNGSA,A,3,69,70,71,78,79,86,87,,,,,,0.9,0.6,0.7*2A
,1512993503781
NMEA,$GPVTG,,T,,M,0.0,N,0.0,K,A*23
,1512993503781
NMEA,$GPRMC,115823.00,A,5559.006330,N,03712.579635,E,0.0,,111217,8.8,E,A*14
,1512993503781
NMEA,$GPGGA,115823.00,5559.006330,N,03712.579635,E,1,11,0.6,202.0,M,16.0,M,,*67
,1512993503781
Fix,gps,55.983439,37.209661,218.000000,0.000000,4.551000,1512993504000
NMEA,$GPGSV,3,1,10,03,42,147,30,06,36,284,34,07,14,208,25,09,53,261,34*76
,1512993504774
NMEA,$GPGSV,3,2,10,16,21,111,29,23,86,161,36,26,29,077,32,29,04,014,26*7B
,1512993504774
NMEA,$GPGSV,3,3,10,31,13,045,31,02,19,319,*7A
,1512993504774
NMEA,$GLGSV,3,1,10,14,06,021,23,06,82,344,27,22,23,288,29,15,43,045,31*65
,1512993504774
NMEA,$GLGSV,3,2,10,23,18,348,26,07,30,299,24,09,06,184,,16,49,151,*6B
,1512993504774
NMEA,$GLGSV,3,3,10,05,33,111,,21,01,240,*64
,1512993504774
NMEA,$GPGSA,A,3,02,03,06,07,09,16,23,26,29,31,,,0.9,0.6,0.7*38
,1512993504781
NMEA,$GNGSA,A,3,69,70,71,78,79,86,87,,,,,,0.9,0.6,0.7*2A
,1512993504782
NMEA,$GPVTG,,T,,M,0.0,N,0.0,K,A*23
,1512993504782
NMEA,$GPRMC,115824.00,A,5559.006332,N,03712.579635,E,0.0,,111217,8.8,E,A*11
,1512993504782
NMEA,$GPGGA,115824.00,5559.006332,N,03712.579635,E,1,10,0.6,202.0,M,16.0,M,,*63
,1512993504782
Fix,gps,55.983439,37.209661,218.000000,0.000000,4.551000,1512993505000
NMEA,$GPGSV,3,1,11,03,42,147,30,06,36,284,35,07,14,208,26,09,53,261,33*72
,1512993505783
NMEA,$GPGSV,3,2,11,16,21,111,28,23,86,161,35,26,29,077,30,29,04,014,25*79
,1512993505783
NMEA,$GPGSV,3,3,11,31,13,045,26,02,19,319,,22,22,143,*4B
,1512993505783
NMEA,$GLGSV,3,1,10,14,06,021,24,06,82,344,29,22,23,288,26,15,43,045,28*6B
,1512993505783
NMEA,$GLGSV,3,2,10,23,18,348,25,07,30,299,22,09,06,184,,16,49,151,*6E
,1512993505783
NMEA,$GLGSV,3,3,10,05,33,111,,21,01,240,*64
,1512993505783
NMEA,$GPGSA,A,3,02,03,06,07,09,16,22,23,26,29,31,,0.9,0.6,0.7*38
,1512993505788
NMEA,$GNGSA,A,3,69,70,71,78,79,86,87,,,,,,0.9,0.6,0.7*2A
,1512993505788
NMEA,$GPVTG,,T,,M,0.0,N,0.0,K,A*23
,1512993505789
NMEA,$GPRMC,115825.00,A,5559.006329,N,03712.579641,E,0.0,,111217,8.8,E,A*19
,1512993505789
NMEA,$GPGGA,115825.00,5559.006329,N,03712.579641,E,1,11,0.6,202.0,M,16.0,M,,*6A
,1512993505789
Fix,gps,55.983439,37.209661,218.000000,0.000000,4.551000,1512993506000
NMEA,$GPGSV,3,1,11,03,42,147,37,06,36,284,35,07,14,208,26,09,53,261,36*70
,1512993506783
NMEA,$GPGSV,3,2,11,16,21,111,28,23,86,161,37,26,29,077,34,29,04,014,30*7B
,1512993506783
NMEA,$GPGSV,3,3,11,31,13,045,30,02,19,319,,22,22,143,*4C
,1512993506783
NMEA,$GLGSV,3,1,10,14,06,021,28,06,82,344,29,22,23,288,27,15,43,045,29*67
,1512993506783
NMEA,$GLGSV,3,2,10,05,33,111,27,23,18,348,26,07,30,299,30,09,06,184,*60
,1512993506783
NMEA,$GLGSV,3,3,10,16,49,151,,21,01,240,*6F
,1512993506783
NMEA,$GPGSA,A,3,02,03,06,07,09,16,22,23,26,29,31,,0.9,0.6,0.7*38
,1512993506789
NMEA,$GNGSA,A,3,69,70,71,78,79,86,87,,,,,,0.9,0.6,0.7*2A
,1512993506789
NMEA,$GPVTG,,T,,M,0.0,N,0.0,K,A*23
,1512993506789
NMEA,$GPRMC,115826.00,A,5559.006330,N,03712.579638,E,0.0,,111217,8.8,E,A*1C
,1512993506789
NMEA,$GPGGA,115826.00,5559.006330,N,03712.579638,E,1,11,0.6,202.0,M,16.0,M,,*6F
,1512993506789
Fix,gps,55.983439,37.209661,218.000000,0.000000,4.551000,1512993507000
NMEA,$GPGSV,3,1,11,03,42,147,35,06,36,284,33,07,14,208,30,09,53,261,35*70
,1512993507780
NMEA,$GPGSV,3,2,11,16,21,111,30,22,22,143,26,23,86,161,37,26,29,077,35*78
,1512993507780
NMEA,$GPGSV,3,3,11,29,04,014,32,31,13,045,27,02,19,319,*47
,1512993507780
NMEA,$GLGSV,3,1,09,06,82,344,30,22,23,288,30,15,43,045,31,05,33,111,23*67
,1512993507780
NMEA,$GLGSV,3,2,09,23,18,348,24,07,30,299,33,09,06,184,,16,49,151,*67
,1512993507780
NMEA,$GLGSV,3,3,09,21,01,240,*58
,1512993507780
NMEA,$GPGSA,A,3,02,03,06,07,09,16,22,23,26,29,31,,1.0,0.6,0.7*30
,1512993507784
NMEA,$GNGSA,A,3,69,70,71,79,86,87,,,,,,,1.0,0.6,0.7*2D
,1512993507784
NMEA,$GPVTG,,T,,M,0.0,N,0.0,K,A*23
,1512993507785
NMEA,$GPRMC,115827.00,A,5559.006326,N,03712.579637,E,0.0,,111217,8.8,E,A*15
,1512993507785
NMEA,$GPGGA,115827.00,5559.006326,N,03712.579637,E,1,11,0.6,202.0,M,16.0,M,,*66
,1512993507785
Fix,gps,55.983439,37.209661,218.000000,0.000000,4.551000,1512993508000
NMEA,$GPGSV,3,1,10,03,42,147,32,06,36,284,34,09,53,261,32,16,21,111,29*73
,1512993508779
NMEA,$GPGSV,3,2,10,22,22,143,24,23,86,161,39,26,29,077,34,29,04,014,26*7C
,1512993508780
NMEA,$GPGSV,3,3,10,31,13,045,27,02,19,319,*7D
,1512993508780
NMEA,$GLGSV,3,1,10,06,82,344,30,22,23,288,27,15,43,045,32,05,33,111,23*6A
,1512993508780
NMEA,$GLGSV,3,2,10,23,18,348,24,07,30,299,30,14,06,021,,09,06,184,*63
,1512993508780
NMEA,$GLGSV,3,3,10,16,49,151,,21,01,240,*6F
,1512993508780
NMEA,$GPGSA,A,3,03,06,09,16,22,23,26,29,31,,,,1.0,0.6,0.7*35
,1512993508781
NMEA,$GNGSA,A,3,69,70,71,78,79,86,87,,,,,,1.0,0.6,0.7*22
,1512993508781
NMEA,$GPVTG,,T,,M,0.0,N,0.0,K,A*23
,1512993508781
NMEA,$GPRMC,115828.00,A,5559.006324,N,03712.579638,E,0.0,,111217,8.8,E,A*17
,1512993508781
NMEA,$GPGGA,115828.00,5559.006324,N,03712.579638,E,1,09,0.6,202.0,M,16.0,M,,*6D
,1512993508781
Fix,gps,55.983439,37.209661,218.000000,0.000000,4.551000,1512993509000
NMEA,$GPGSV,3,1,09,03,42,147,33,06,36,284,34,09,53,261,34,16,21,111,28*7D
,1512993509776
NMEA,$GPGSV,3,2,09,22,22,143,28,23,86,161,37,26,29,077,30,31,13,045,29*76
,1512993509776
NMEA,$GPGSV,3,3,09,02,19,319,*41
,1512993509776
NMEA,$GLGSV,3,1,09,14,06,021,23,06,82,344,28,22,23,288,27,15,43,045,26*6A
,1512993509776
NMEA,$GLGSV,3,2,09,23,18,348,25,07,30,299,29,09,06,184,,16,49,151,*6D
,1512993509777
NMEA,$GLGSV,3,3,09,21,01,240,*58
,1512993509777
NMEA,$GPGSA,A,3,03,06,09,16,22,23,26,31,,,,,1.0,0.6,0.7*3E
,1512993509777
NMEA,$GNGSA,A,3,70,71,78,79,86,87,,,,,,,1.0,0.6,0.7*2D
,1512993509777
NMEA,$GPVTG,,T,,M,0.0,N,0.0,K,A*23
,1512993509778
NMEA,$GPRMC,115829.00,A,5559.006324,N,03712.579633,E,0.0,,111217,8.8,E,A*1D
,1512993509778
NMEA,$GPGGA,115829.00,5559.006324,N,03712.579633,E,1,08,0.6,202.0,M,16.0,M,,*66
,1512993509778
Fix,gps,55.983439,37.209661,218.000000,0.000000,4.551000,1512993510000
NMEA,$GPGSV,3,1,11,03,42,147,33,06,36,284,30,07,14,208,17,09,53,261,39*7C
,1512993510775
NMEA,$GPGSV,3,2,11,16,21,111,28,22,22,143,23,23,86,161,38,26,29,077,33*7D
,1512993510775
NMEA,$GPGSV,3,3,11,29,04,014,30,31,13,045,27,02,19,319,*45
,1512993510775
NMEA,$GLGSV,3,1,10,14,06,021,24,06,82,344,29,22,23,288,22,16,49,151,18*61
,1512993510775
NMEA,$GLGSV,3,2,10,15,43,045,33,05,33,111,17,23,18,348,21,07,30,299,30*64
,1512993510775
NMEA,$GLGSV,3,3,10,09,06,184,,21,01,240,*62
,1512993510776
NMEA,$GPGSA,A,3,03,06,07,09,16,22,23,26,29,31,,,1.0,0.6,0.7*32
,1512993510776
NMEA,$GNGSA,A,3,69,70,71,78,79,86,87,,,,,,1.0,0.6,0.7*22
,1512993510776
NMEA,$GPVTG,,T,,M,0.0,N,0.0,K,A*23
,1512993510776
NMEA,$GPRMC,115830.00,A,5559.006315,N,03712.579631,E,0.0,,111217,8.8,E,A*15
,1512993510776
NMEA,$GPGGA,115830.00,5559.006315,N,03712.579631,E,1,10,0.6,202.0,M,16.0,M,,*67
,1512993510776
Fix,gps,55.983441,37.209657,219.000000,0.000000,4.551000,1512993511000
NMEA,$GPGSV,3,1,11,02,19,319,20,03,42,147,36,06,36,284,35,07,14,208,19*71
,1512993511771
NMEA,$GPGSV,3,2,11,09,53,261,35,16,21,111,24,22,22,143,23,23,86,161,35*7F
,1512993511771
NMEA,$GPGSV,3,3,11,26,29,077,35,29,04,014,28,31,13,045,31*43
,1512993511771
NMEA,$GLGSV,3,1,10,14,06,021,30,06,82,344,30,22,23,288,30,16,49,151,19*6E
,1512993511771
NMEA,$GLGSV,3,2,10,15,43,045,37,05,33,111,16,23,18,348,21,07,30,299,32*63
,1512993511771
NMEA,$GLGSV,3,3,10,09,06,184,,21,01,240,*62
,1512993511771
NMEA,$GPGSA,A,3,03,06,07,09,16,22,23,26,29,31,,,1.0,0.6,0.7*32
,1512993511772
NMEA,$GNGSA,A,3,69,70,71,78,79,86,87,,,,,,1.0,0.6,0.7*22
,1512993511772
NMEA,$GPVTG,,T,,M,0.0,N,0.0,K,A*23
,1512993511772
NMEA,$GPRMC,115831.00,A,5559.006458,N,03712.579400,E,0.0,,111217,8.8,E,A*1A
,1512993511772
NMEA,$GPGGA,115831.00,5559.006458,N,03712.579400,E,1,10,0.6,203.0,M,16.0,M,,*69
,1512993511772
Fix,gps,55.983439,37.209655,219.000000,0.000000,4.551000,1512993512000
NMEA,$GPGSV,3,1,12,02,19,319,19,03,42,147,34,04,00,000,32,06,36,284,32*78
,1512993512766
NMEA,$GPGSV,3,2,12,07,14,208,19,09,53,261,36,16,21,111,21,22,22,143,29*7F
,1512993512766
NMEA,$GPGSV,3,3,12,23,86,161,34,26,29,077,34,29,04,014,27,31,13,045,29*79
,1512993512766
NMEA,$GLGSV,3,1,10,14,06,021,27,06,82,344,26,22,23,288,30,16,49,151,19*6F
,1512993512766
NMEA,$GLGSV,3,2,10,15,43,045,33,05,33,111,18,23,18,348,25,07,30,299,30*6F
,1512993512766
NMEA,$GLGSV,3,3,10,09,06,184,,21,01,240,*62
,1512993512766
NMEA,$GPGSA,A,3,03,06,07,09,16,22,23,26,29,31,,,1.0,0.6,0.7*32
,1512993512767
NMEA,$GNGSA,A,3,69,70,71,78,79,86,87,,,,,,1.0,0.6,0.7*22
,1512993512767
NMEA,$GPVTG,,T,,M,0.0,N,0.0,K,A*23
,1512993512767
NMEA,$GPRMC,115832.00,A,5559.006347,N,03712.579295,E,0.0,,111217,8.8,E,A*1A
,1512993512767
NMEA,$GPGGA,115832.00,5559.006347,N,03712.579295,E,1,10,0.6,203.0,M,16.0,M,,*69
,1512993512767
Fix,gps,55.983439,37.209654,219.000000,0.000000,4.551000,1512993513000
NMEA,$GPGSV,3,1,12,02,19,319,19,03,42,147,28,04,00,000,32,06,36,284,32*75
,1512993513767
NMEA,$GPGSV,3,2,12,07,14,208,29,09,53,261,29,16,21,111,22,22,22,143,29*71
,1512993513767
NMEA,$GPGSV,3,3,12,23,86,161,26,26,29,077,35,29,04,014,26,31,13,045,23*70
,1512993513767
NMEA,$GLGSV,3,1,10,14,06,021,31,06,82,344,27,22,23,288,27,16,49,151,18*6E
,1512993513767
NMEA,$GLGSV,3,2,10,15,43,045,36,05,33,111,20,23,18,348,26,07,30,299,30*62
,1512993513767
NMEA,$GLGSV,3,3,10,09,06,184,,21,01,240,*62
,1512993513767
NMEA,$GPGSA,A,3,03,06,07,09,16,22,23,26,29,31,,,1.0,0.6,0.7*32
,1512993513767
NMEA,$GNGSA,A,3,69,70,71,78,79,86,87,,,,,,1.0,0.6,0.7*22
,1512993513767
NMEA,$GPVTG,,T,,M,0.0,N,0.0,K,A*23
,1512993513768
NMEA,$GPRMC,115833.00,A,5559.006311,N,03712.579224,E,0.0,,111217,8.8,E,A*12
,1512993513768
NMEA,$GPGGA,115833.00,5559.006311,N,03712.579224,E,1,10,0.6,203.0,M,16.0,M,,*61
,1512993513768
Fix,gps,55.983437,37.209654,218.000000,0.000000,4.551000,1512993514000
NMEA,$GPGSV,3,1,12,02,19,319,20,03,42,147,31,04,00,000,33,06,36,284,26*73
,1512993514766
NMEA,$GPGSV,3,2,12,07,14,208,29,09,53,261,35,16,21,111,25,22,22,143,28*7A
,1512993514766
NMEA,$GPGSV,3,3,12,23,86,161,31,26,29,077,34,29,04,014,21,31,13,045,26*75
,1512993514766
NMEA,$GLGSV,3,1,10,14,06,021,22,06,82,344,27,22,23,288,29,16,49,151,18*62
,1512993514766
NMEA,$GLGSV,3,2,10,15,43,045,35,05,33,111,18,23,18,348,26,07,30,299,28*63
,1512993514766
NMEA,$GLGSV,3,3,10,09,06,184,,21,01,240,*62
,1512993514766
NMEA,$GPGSA,A,3,03,06,07,09,16,22,23,26,29,31,,,0.9,0.6,0.7*3A
,1512993514767
NMEA,$GNGSA,A,3,69,70,71,78,79,86,87,,,,,,0.9,0.6,0.7*2A
,1512993514767
NMEA,$GPVTG,,T,,M,0.0,N,0.0,K,A*23
,1512993514767
NMEA,$GPRMC,115834.00,A,5559.006242,N,03712.579239,E,0.0,,111217,8.8,E,A*1E
,1512993514767
NMEA,$GPGGA,115834.00,5559.006242,N,03712.579239,E,1,10,0.6,202.0,M,16.0,M,,*6C
,1512993514767
Fix,gps,55.983438,37.209653,219.000000,0.000000,4.551000,1512993515000
NMEA,$GPGSV,3,1,12,02,19,319,20,03,42,147,34,04,00,000,32,06,36,284,29*78
,1512993515765
NMEA,$GPGSV,3,2,12,07,14,208,27,09,53,261,36,16,21,111,26,22,22,143,25*79
,1512993515766
NMEA,$GPGSV,3,3,12,23,86,161,34,26,29,077,33,29,04,014,22,31,13,045,25*77
,1512993515766
NMEA,$GLGSV,3,1,10,14,06,021,25,06,82,344,27,22,23,288,28,16,49,151,19*65
,1512993515766
NMEA,$GLGSV,3,2,10,15,43,045,35,05,33,111,18,23,18,348,26,07,30,299,28*63
,1512993515766
NMEA,$GLGSV,3,3,10,09,06,184,,21,01,240,*62
,1512993515766
NMEA,$GPGSA,A,3,02,03,06,07,09,16,22,23,26,29,31,,0.9,0.6,0.7*38
,1512993515766
NMEA,$GNGSA,A,3,69,70,71,78,79,86,87,,,,,,0.9,0.6,0.7*2A
,1512993515766
NMEA,$GPVTG,,T,,M,0.0,N,0.0,K,A*23
,1512993515766
NMEA,$GPRMC,115835.00,A,5559.006302,N,03712.579190,E,0.0,,111217,8.8,E,A*1A
,1512993515766
NMEA,$GPGGA,115835.00,5559.006302,N,03712.579190,E,1,11,0.6,203.0,M,16.0,M,,*68
,1512993515766
Fix,gps,55.983437,37.209654,219.000000,0.000000,4.551000,1512993516000
NMEA,$GPGSV,3,1,12,02,19,319,18,03,42,147,30,04,00,000,28,06,36,284,32*76
,1512993516762
NMEA,$GPGSV,3,2,12,07,14,208,29,09,53,261,38,16,21,111,26,22,22,143,25*79
,1512993516763
NMEA,$GPGSV,3,3,12,23,86,161,35,26,29,077,31,29,04,014,29,31,13,045,21*7B
,1512993516763
NMEA,$GLGSV,3,1,10,14,06,021,28,06,82,344,30,22,23,288,34,16,49,151,24*6D
,1512993516763
NMEA,$GLGSV,3,2,10,15,43,045,38,05,33,111,18,23,18,348,26,07,30,299,36*61
,1512993516763
