# 
# Header Description:
# 
# Version: v2.0.0.1 Platform: 7.0 Manufacturer: HUAWEI Model: HUAWEI VNS-L21
# 
# Raw,ElapsedRealtimeMillis,TimeNanos,LeapSecond,TimeUncertaintyNanos,FullBiasNanos,BiasNanos,BiasUncertaintyNanos,DriftNanosPerSecond,DriftUncertaintyNanosPerSecond,HardwareClockDiscontinuityCount,Svid,TimeOffsetNanos,State,ReceivedSvTimeNanos,ReceivedSvTimeUncertaintyNanos,Cn0DbHz,PseudorangeRateMetersPerSecond,PseudorangeRateUncertaintyMetersPerSecond,AccumulatedDeltaRangeState,AccumulatedDeltaRangeMeters,AccumulatedDeltaRangeUncertaintyMeters,CarrierFrequencyHz,CarrierCycles,CarrierPhase,CarrierPhaseUncertainty,MultipathIndicator,SnrInDb,ConstellationType,AgcDb,CarrierFrequencyHz
# 
# Fix,Provider,Latitude,Longitude,Altitude,Speed,Accuracy,(UTC)TimeInMs
# 
# Nav,Svid,Type,Status,MessageId,Sub-messageId,Data(Bytes)
# 
Raw,433212156,1197028707000000000,18,0.0,0,536036.0621152451,333.564095198152,775.6098284494348,0.0,0,9,2.2E-7,7,0,0,23.0,163.33299571904354,0.1,0,0.0,0.0,,,0.5,,0,,1,,
Raw,433212157,1197028707000000000,18,0.0,0,536036.0621152451,333.564095198152,775.6098284494348,0.0,0,6,2.2E-7,3,6000000000,0,31.0,-262.9091412187554,0.1,0,0.0,0.0,,,0.5,,0,,1,,
Raw,433212157,1197028707000000000,18,0.0,0,536036.0621152451,333.564095198152,775.6098284494348,0.0,0,29,2.2E-7,3,16000000000,0,25.0,44.52025770349428,0.1,0,0.0,0.0,,,0.5,,0,,1,,
Raw,433212158,1197028707000000000,18,0.0,0,536036.0621152451,333.564095198152,775.6098284494348,0.0,0,16,2.2E-7,3,2000000000,0,23.0,314.46845700754784,0.1,0,0.0,0.0,,,0.5,,0,,1,,
Raw,433212158,1197028707000000000,18,0.0,0,536036.0621152451,333.564095198152,775.6098284494348,0.0,0,26,2.2E-7,3,3000000000,0,36.0,-80.0113268555142,0.1,0,0.0,0.0,,,0.5,,0,,1,,
Raw,433212159,1197028707000000000,18,0.0,0,536036.0621152451,333.564095198152,775.6098284494348,0.0,0,31,2.2E-7,3,18000000000,0,36.0,-915.0232360183727,0.1,0,0.0,0.0,,,0.5,,0,,1,,
Raw,433212159,1197028707000000000,18,0.0,0,536036.0621152451,333.564095198152,775.6098284494348,0.0,0,4,2.2E-7,15,129507000000000,0,30.0,-271.5866546796169,0.1,0,0.0,0.0,,,0.5,,0,,1,,
Raw,433212160,1197028707000000000,18,0.0,0,536036.0621152451,333.564095198152,775.6098284494348,0.0,0,7,2.2E-7,3,18000000000,0,12.0,459.20626714848913,0.1,0,0.0,0.0,,,0.5,,0,,1,,
Raw,433212160,1197028707000000000,18,0.0,0,536036.0621152451,333.564095198152,775.6098284494348,0.0,0,23,2.2E-7,15,129507000000000,0,37.0,-208.12116573308595,0.1,0,0.0,0.0,,,0.5,,0,,1,,
Raw,433212161,1197028707000000000,18,0.0,0,536036.0621152451,333.564095198152,775.6098284494348,0.0,0,22,2.2E-7,3,1000000000,0,31.0,-876.5441168691032,0.1,0,0.0,0.0,,,0.5,,0,,1,,
Raw,433212161,1197028707000000000,18,0.0,0,536036.0621152451,333.564095198152,775.6098284494348,0.0,0,3,2.2E-7,3,7000000000,0,36.0,-771.5564025109634,0.1,0,0.0,0.0,,,0.5,,0,,1,,
Fix,gps,55.983367,37.209635,235.029784,0.000000,5.000000,1512993489000
NMEA,$GPGGA,115809.00,5559.0020,N,03712.5781,E,1,20,0.606,235.030,M,,M,0,*41
,1512993489000
NMEA,$GNGSA,A,3,3,6,7,9,16,22,23,26,31,205,207,209,210,214,69,71,78,79,80,87,1.142,0.606,0.969*15
,1512993489000
NMEA,$GPGSA,A,3,3,6,7,9,16,22,23,26,31,,,,,,,,,,,,1.142,0.606,0.969*39
,1512993489000
NMEA,$GLGSA,A,3,69,71,78,79,80,87,,,,,,,,,,,,,,,1.142,0.606,0.969*21
,1512993489000
NMEA,$BDGSA,A,3,205,207,209,210,214,,,,,,,,,,,,,,,,1.142,0.606,0.969*1E
,1512993489000
NMEA,$QZGSA,A,3,,,,,,,,,,,,,,,,,,,,,1.142,0.606,0.969*2E
,1512993489000
NMEA,$GPGSV,6,1,27,2,20,320,,3,43,148,34,4,5,,28,6,36,284,29*77
,1512993489000
NMEA,$GPGSV,6,2,27,7,14,208,10,9,54,262,21,16,22,111,21,22,22,144,29*7D
,1512993489000
NMEA,$GPGSV,6,3,27,23,87,154,35,26,29,77,34,29,5,14,23,31,13,46,34*78
,1512993489000
NMEA,$GLGSV,6,4,27,69,33,111,27,70,82,345,30,71,30,300,32,73,6,184,*53
,1512993489000
NMEA,$GLGSV,6,5,27,78,6,22,25,79,43,45,27,80,50,152,25,86,23,289,20*5C
,1512993489000
NMEA,$GLGSV,6,6,27,87,18,349,21*55
,1512993489000
NMEA,$BDGSV,2,1,27,202,12,128,,205,21,154,18,207,41,69,24,209,17,101,23*52
,1512993489000
NMEA,$BDGSV,2,2,27,210,48,108,28,214,70,149,28*67
,1512993489000
NMEA,$GPRMC,115809.00,A,5559.0020,N,03712.5781,E,0.000,197.569,111217,,E,A*1D
,1512993489000
Raw,433213160,1197028708000000000,18,0.0,0,536813.4403195769,333.564095198152,776.458179909433,0.0,0,9,2.2E-7,3,10000000000,0,20.0,162.3712644786574,0.1,0,0.0,0.0,,,0.5,,0,,1,,
Raw,433213161,1197028708000000000,18,0.0,0,536813.4403195769,333.564095198152,776.458179909433,0.0,0,6,2.2E-7,3,6000000000,0,32.0,-263.46073849801905,0.1,0,0.0,0.0,,,0.5,,0,,1,,
Raw,433213161,1197028708000000000,18,0.0,0,536813.4403195769,333.564095198152,776.458179909433,0.0,0,29,2.2E-7,3,16000000000,0,20.0,42.58692568889819,0.1,0,0.0,0.0,,,0.5,,0,,1,,
Raw,433213162,1197028708000000000,18,0.0,0,536813.4403195769,333.564095198152,776.458179909433,0.0,0,16,2.2E-7,3,2000000000,0,24.0,313.8444831469096,0.1,0,0.0,0.0,,,0.5,,0,,1,,
Raw,433213162,1197028708000000000,18,0.0,0,536813.4403195769,333.564095198152,776.458179909433,0.0,0,26,2.2E-7,3,3000000000,0,36.0,-80.21858706581406,0.1,0,0.0,0.0,,,0.5,,0,,1,,
Raw,433213163,1197028708000000000,18,0.0,0,536813.4403195769,333.564095198152,776.458179909433,0.0,0,31,2.2E-7,3,18000000000,0,36.0,-915.1965011677239,0.1,0,0.0,0.0,,,0.5,,0,,1,,
Raw,433213163,1197028708000000000,18,0.0,0,536813.4403195769,333.564095198152,776.458179909433,0.0,0,4,2.2E-7,15,129508000000000,0,29.0,-271.99349879613146,0.1,0,0.0,0.0,,,0.5,,0,,1,,
Raw,433213164,1197028708000000000,18,0.0,0,536813.4403195769,333.564095198152,776.458179909433,0.0,0,7,2.2E-7,3,18000000000,0,24.0,456.705985246459,0.1,0,0.0,0.0,,,0.5,,0,,1,,
Raw,433213164,1197028708000000000,18,0.0,0,536813.4403195769,333.564095198152,776.458179909433,0.0,0,23,2.2E-7,15,129508000000000,0,36.0,-208.4622129574418,0.1,0,0.0,0.0,,,0.5,,0,,1,,
Raw,433213164,1197028708000000000,18,0.0,0,536813.4403195769,333.564095198152,776.458179909433,0.0,0,22,2.2E-7,3,1000000000,0,30.0,-877.0079849588219,0.1,0,0.0,0.0,,,0.5,,0,,1,,
Raw,433213165,1197028708000000000,18,0.0,0,536813.4403195769,333.564095198152,776.458179909433,0.0,0,3,2.2E-7,3,7000000000,0,34.0,-771.8513919108082,0.1,0,0.0,0.0,,,0.5,,0,,1,,
Fix,gps,55.983367,37.209635,235.029784,0.000000,5.000000,1512993490000
NMEA,$GPGGA,115810.00,5559.0020,N,03712.5781,E,1,20,0.606,235.030,M,,M,0,*49
,1512993490001
NMEA,$GNGSA,A,3,3,6,7,9,16,22,23,26,31,205,207,209,210,214,69,71,78,79,80,87,1.142,0.606,0.969*15
,1512993490001
NMEA,$GPGSA,A,3,3,6,7,9,16,22,23,26,31,,,,,,,,,,,,1.142,0.606,0.969*39
,1512993490001
NMEA,$GLGSA,A,3,69,71,78,79,80,87,,,,,,,,,,,,,,,1.142,0.606,0.969*21
,1512993490001
NMEA,$BDGSA,A,3,205,207,209,210,214,,,,,,,,,,,,,,,,1.142,0.606,0.969*1E
,1512993490001
NMEA,$QZGSA,A,3,,,,,,,,,,,,,,,,,,,,,1.142,0.606,0.969*2E
,1512993490001
NMEA,$GPGSV,8,1,27,2,20,320,,3,43,148,32,4,5,,27,6,36,284,30*76
,1512993490001
NMEA,$GPGSV,8,2,27,7,14,208,22,9,54,262,18,16,22,111,22,22,22,144,28*74
,1512993490001
NMEA,$GPGSV,8,3,27,23,87,154,34,26,29,77,34,29,5,14,18,31,13,46,34*71
,1512993490001
NMEA,$GLGSV,8,4,27,69,33,111,28,70,82,345,28,71,30,300,32,73,6,184,*55
,1512993490001
NMEA,$GLGSV,8,5,27,78,6,22,26,79,43,45,26,80,50,152,25,86,23,289,22*5C
,1512993490001
NMEA,$GLGSV,8,6,27,87,18,349,20*54
,1512993490001
NMEA,$BDGSV,8,7,27,202,12,128,,205,21,154,18,207,41,69,26,209,17,101,19*59
,1512993490001
NMEA,$BDGSV,8,8,27,210,48,108,28,214,70,149,25*6A
,1512993490001
NMEA,$GPRMC,115810.00,A,5559.0020,N,03712.5781,E,0.000,197.569,111217,,E,A*15
,1512993490001
Raw,433214116,1197028709000000000,18,0.0,0,537587.5888949211,333.564095198152,775.7730214910645,0.0,0,9,2.2E-7,3,10000000000,0,22.0,162.18703318061307,0.1,0,0.0,0.0,,,0.5,,0,,1,,
Raw,433214117,1197028709000000000,18,0.0,0,537587.5888949211,333.564095198152,775.7730214910645,0.0,0,6,2.2E-7,3,6000000000,0,33.0,-263.52763200504705,0.1,0,0.0,0.0,,,0.5,,0,,1,,
Raw,433214117,1197028709000000000,18,0.0,0,537587.5888949211,333.564095198152,775.7730214910645,0.0,0,29,2.2E-7,3,16000000000,0,29.0,43.22076908336021,0.1,0,0.0,0.0,,,0.5,,0,,1,,
Raw,433214117,1197028709000000000,18,0.0,0,537587.5888949211,333.564095198152,775.7730214910645,0.0,0,16,2.2E-7,15,129509000000000,0,25.0,313.55717005115,0.1,0,0.0,0.0,,,0.5,,0,,1,,
Raw,433214118,1197028709000000000,18,0.0,0,537587.5888949211,333.564095198152,775.7730214910645,0.0,0,26,2.2E-7,3,3000000000,0,38.0,-80.30960609996691,0.1,0,0.0,0.0,,,0.5,,0,,1,,
Raw,433214118,1197028709000000000,18,0.0,0,537587.5888949211,333.564095198152,775.7730214910645,0.0,0,31,2.2E-7,3,18000000000,0,33.0,-915.0835498361848,0.1,0,0.0,0.0,,,0.5,,0,,1,,
Raw,433214119,1197028709000000000,18,0.0,0,537587.5888949211,333.564095198152,775.7730214910645,0.0,0,4,2.2E-7,15,129509000000000,0,34.0,-272.23365745251067,0.1,0,0.0,0.0,,,0.5,,0,,1,,
Raw,433214119,1197028709000000000,18,0.0,0,537587.5888949211,333.564095198152,775.7730214910645,0.0,0,7,2.2E-7,3,18000000000,0,28.0,454.94811161095276,0.1,0,0.0,0.0,,,0.5,,0,,1,,
Raw,433214119,1197028709000000000,18,0.0,0,537587.5888949211,333.564095198152,775.7730214910645,0.0,0,23,2.2E-7,15,129509000000000,0,34.0,-208.3284259433858,0.1,0,0.0,0.0,,,0.5,,0,,1,,
Raw,433214119,1197028709000000000,18,0.0,0,537587.5888949211,333.564095198152,775.7730214910645,0.0,0,22,2.2E-7,3,1000000000,0,25.0,-877.1757670338266,0.1,0,0.0,0.0,,,0.5,,0,,1,,
Raw,433214120,1197028709000000000,18,0.0,0,537587.5888949211,333.564095198152,775.7730214910645,0.0,0,3,2.2E-7,3,7000000000,0,29.0,-771.8634546743706,0.1,0,0.0,0.0,,,0.5,,0,,1,,
Fix,gps,55.983367,37.209635,235.029784,0.000000,5.000000,1512993491000
NMEA,$GPGGA,115811.00,5559.0020,N,03712.5781,E,1,20,0.606,235.030,M,,M,0,*48
,1512993491001
NMEA,$GNGSA,A,3,3,6,7,9,16,22,23,26,31,205,207,209,210,214,69,71,78,79,80,87,1.142,0.606,0.969*15
,1512993491001
NMEA,$GPGSA,A,3,3,6,7,9,16,22,23,26,31,,,,,,,,,,,,1.142,0.606,0.969*39
,1512993491001
NMEA,$GLGSA,A,3,69,71,78,79,80,87,,,,,,,,,,,,,,,1.142,0.606,0.969*21
,1512993491001
NMEA,$BDGSA,A,3,205,207,209,210,214,,,,,,,,,,,,,,,,1.142,0.606,0.969*1E
,1512993491001
NMEA,$QZGSA,A,3,,,,,,,,,,,,,,,,,,,,,1.142,0.606,0.969*2E
,1512993491001
NMEA,$GPGSV,8,1,27,2,20,320,,3,43,148,27,4,5,,32,6,36,284,31*77
,1512993491001
NMEA,$GPGSV,8,2,27,7,14,208,26,9,54,262,20,16,22,111,23,22,22,144,23*71
,1512993491001
NMEA,$GPGSV,8,3,27,23,87,154,32,26,29,77,36,29,5,14,27,31,13,46,31*7C
,1512993491001
NMEA,$GLGSV,8,4,27,69,33,111,25,70,82,345,27,71,30,300,28,73,6,184,*5C
,1512993491001
NMEA,$GLGSV,8,5,27,78,6,22,28,79,43,45,26,80,50,152,28,86,23,289,28*55
,1512993491001
NMEA,$GLGSV,8,6,27,87,18,349,19*5E
,1512993491001
NMEA,$BDGSV,8,7,27,202,12,128,,205,21,154,18,207,41,69,25,209,17,101,22*52
,1512993491001
NMEA,$BDGSV,8,8,27,210,48,108,28,214,70,149,23*6C
,1512993491001
NMEA,$GPRMC,115811.00,A,5559.0020,N,03712.5781,E,0.000,197.569,111217,,E,A*14
,1512993491001
Fix,gps,55.983367,37.209635,235.029784,0.000000,5.000000,1512993492000
Raw,433215111,1197028710000000000,18,0.0,0,538363.0099073638,333.564095198152,775.5048564454702,0.0,0,9,2.2E-7,3,10000000000,0,26.0,162.29998451215215,0.1,0,0.0,0.0,,,0.5,,0,,1,,
Raw,433215111,1197028710000000000,18,0.0,0,538363.0099073638,333.564095198152,775.5048564454702,0.0,0,6,2.2E-7,3,6000000000,0,30.0,-263.3806856125593,0.1,0,0.0,0.0,,,0.5,,0,,1,,
Raw,433215111,1197028710000000000,18,0.0,0,538363.0099073638,333.564095198152,775.5048564454702,0.0,0,29,2.2E-7,15,129510000000000,0,28.0,43.912733065895736,0.1,0,0.0,0.0,,,0.5,,0,,1,,
Raw,433215112,1197028710000000000,18,0.0,0,538363.0099073638,333.564095198152,775.5048564454702,0.0,0,2,2.2E-7,3,19000000000,0,14.0,118.04609146108851,0.1,0,0.0,0.0,,,0.5,,0,,1,,
Raw,433215112,1197028710000000000,18,0.0,0,538363.0099073638,333.564095198152,775.5048564454702,0.0,0,16,2.2E-7,15,129510000000000,0,27.0,313.5473005173262,0.1,0,0.0,0.0,,,0.5,,0,,1,,
Raw,433215112,1197028710000000000,18,0.0,0,538363.0099073638,333.564095198152,775.5048564454702,0.0,0,26,2.2E-7,3,3000000000,0,35.0,-80.3271519378759,0.1,0,0.0,0.0,,,0.5,,0,,1,,
Raw,433215113,1197028710000000000,18,0.0,0,538363.0099073638,333.564095198152,775.5048564454702,0.0,0,31,2.2E-7,3,18000000000,0,31.0,-914.8291351865046,0.1,0,0.0,0.0,,,0.5,,0,,1,,
Raw,433215113,1197028710000000000,18,0.0,0,538363.0099073638,333.564095198152,775.5048564454702,0.0,0,4,2.2E-7,15,129510000000000,0,35.0,-272.23475406738,0.1,0,0.0,0.0,,,0.5,,0,,1,,
Raw,433215113,1197028710000000000,18,0.0,0,538363.0099073638,333.564095198152,775.5048564454702,0.0,0,7,2.2E-7,3,18000000000,0,19.0,453.5817294837907,0.1,0,0.0,0.0,,,0.5,,0,,1,,
Raw,433215114,1197028710000000000,18,0.0,0,538363.0099073638,333.564095198152,775.5048564454702,0.0,0,23,2.2E-7,15,129510000000000,0,34.0,-208.22753737540916,0.1,0,0.0,0.0,,,0.5,,0,,1,,
Raw,433215114,1197028710000000000,18,0.0,0,538363.0099073638,333.564095198152,775.5048564454702,0.0,0,22,2.2E-7,3,1000000000,0,24.0,-876.7787924511358,0.1,0,0.0,0.0,,,0.5,,0,,1,,
Raw,433215114,1197028710000000000,18,0.0,0,538363.0099073638,333.564095198152,775.5048564454702,0.0,0,3,2.2E-7,3,7000000000,0,32.0,-771.9807924653869,0.1,0,0.0,0.0,,,0.5,,0,,1,,
NMEA,$GPGGA,115812.00,5559.0020,N,03712.5781,E,1,21,0.583,235.030,M,,M,0,*44
,1512993492028
NMEA,$GNGSA,A,3,2,3,6,7,9,16,22,23,26,31,205,207,209,210,214,69,71,78,79,80,1.119,0.583,0.955*27
,1512993492028
NMEA,$GPGSA,A,3,2,3,6,7,9,16,22,23,26,31,,,,,,,,,,,1.119,0.583,0.955*04
,1512993492028
NMEA,$GLGSA,A,3,69,71,78,79,80,87,,,,,,,,,,,,,,,1.119,0.583,0.955*2E
,1512993492028
NMEA,$BDGSA,A,3,205,207,209,210,214,,,,,,,,,,,,,,,,1.119,0.583,0.955*11
,1512993492028
NMEA,$QZGSA,A,3,,,,,,,,,,,,,,,,,,,,,1.119,0.583,0.955*21
,1512993492028
NMEA,$GPGSV,8,1,27,2,20,320,12,3,43,148,30,4,5,,33,6,36,284,28*7B
,1512993492028
NMEA,$GPGSV,8,2,27,7,14,208,17,9,54,262,24,16,22,111,25,22,22,144,22*70
,1512993492028
NMEA,$GPGSV,8,3,27,23,87,154,32,26,29,77,33,29,5,14,26,31,13,46,29*71
,1512993492028
NMEA,$GLGSV,8,4,27,69,33,111,24,70,82,345,26,71,30,300,29,73,6,184,*5D
,1512993492028
NMEA,$GLGSV,8,5,27,78,6,22,29,79,43,45,26,80,50,152,23,86,23,289,24*53
,1512993492028
NMEA,$GLGSV,8,6,27,87,18,349,23*57
,1512993492028
NMEA,$BDGSV,8,7,27,202,12,128,,205,21,154,18,207,41,69,25,209,17,101,22*52
,1512993492028
NMEA,$BDGSV,8,8,27,210,48,108,31,214,70,149,24*63
,1512993492028
NMEA,$GPRMC,115812.00,A,5559.0020,N,03712.5781,E,0.000,197.569,111217,,E,A*17
,1512993492028
Fix,gps,55.983367,37.209635,235.029784,0.000000,5.000000,1512993493000
Raw,433216149,1197028711000000000,18,0.0,0,539136.6811617773,333.564095198152,774.8424136933816,0.0,0,9,2.2E-7,3,10000000000,0,27.0,162.06750215985812,0.1,0,0.0,0.0,,,0.5,,0,,1,,
Raw,433216151,1197028711000000000,18,0.0,0,539136.6811617773,333.564095198152,774.8424136933816,0.0,0,6,2.2E-7,3,6000000000,0,30.0,-263.2063238483388,0.1,0,0.0,0.0,,,0.5,,0,,1,,
Raw,433216152,1197028711000000000,18,0.0,0,539136.6811617773,333.564095198152,774.8424136933816,0.0,0,29,2.2E-7,15,129511000000000,0,25.0,44.35137901362032,0.1,0,0.0,0.0,,,0.5,,0,,1,,
Raw,433216153,1197028711000000000,18,0.0,0,539136.6811617773,333.564095198152,774.8424136933816,0.0,0,2,2.2E-7,3,19000000000,0,12.0,118.66019578790292,0.1,0,0.0,0.0,,,0.5,,0,,1,,
Raw,433216153,1197028711000000000,18,0.0,0,539136.6811617773,333.564095198152,774.8424136933816,0.0,0,16,2.2E-7,3,2000000000,0,31.0,313.5056291522924,0.1,0,0.0,0.0,,,0.5,,0,,1,,
Raw,433216154,1197028711000000000,18,0.0,0,539136.6811617773,333.564095198152,774.8424136933816,0.0,0,26,2.2E-7,3,3000000000,0,36.0,-80.2416159780696,0.1,0,0.0,0.0,,,0.5,,0,,1,,
Raw,433216154,1197028711000000000,18,0.0,0,539136.6811617773,333.564095198152,774.8424136933816,0.0,0,31,2.2E-7,3,18000000000,0,30.0,-914.6185851315968,0.1,0,0.0,0.0,,,0.5,,0,,1,,
Raw,433216155,1197028711000000000,18,0.0,0,539136.6811617773,333.564095198152,774.8424136933816,0.0,0,4,2.2E-7,15,129511000000000,0,34.0,-272.11522304662503,0.1,0,0.0,0.0,,,0.5,,0,,1,,
Raw,433216156,1197028711000000000,18,0.0,0,539136.6811617773,333.564095198152,774.8424136933816,0.0,0,7,2.2E-7,3,18000000000,0,23.0,452.84151444700547,0.1,0,0.0,0.0,,,0.5,,0,,1,,
Raw,433216156,1197028711000000000,18,0.0,0,539136.6811617773,333.564095198152,774.8424136933816,0.0,0,23,2.2E-7,15,129511000000000,0,33.0,-208.0773011383135,0.1,0,0.0,0.0,,,0.5,,0,,1,,
Raw,433216157,1197028711000000000,18,0.0,0,539136.6811617773,333.564095198152,774.8424136933816,0.0,0,22,2.2E-7,3,1000000000,0,23.0,-876.8599419514649,0.1,0,0.0,0.0,,,0.5,,0,,1,,
Raw,433216157,1197028711000000000,18,0.0,0,539136.6811617773,333.564095198152,774.8424136933816,0.0,0,3,2.2E-7,3,7000000000,0,31.0,-771.5827212678269,0.1,0,0.0,0.0,,,0.5,,0,,1,,
NMEA,$GPGGA,115813.00,5559.0020,N,03712.5781,E,1,21,0.583,235.030,M,,M,0,*45
,1512993493001
NMEA,$GNGSA,A,3,2,3,6,7,9,16,22,23,26,31,205,207,209,210,214,69,71,78,79,80,1.119,0.583,0.955*27
,1512993493001
NMEA,$GPGSA,A,3,2,3,6,7,9,16,22,23,26,31,,,,,,,,,,,1.119,0.583,0.955*04
,1512993493001
NMEA,$GLGSA,A,3,69,71,78,79,80,87,,,,,,,,,,,,,,,1.119,0.583,0.955*2E
,1512993493001
NMEA,$BDGSA,A,3,205,207,209,210,214,,,,,,,,,,,,,,,,1.119,0.583,0.955*11
,1512993493001
NMEA,$QZGSA,A,3,,,,,,,,,,,,,,,,,,,,,1.119,0.583,0.955*21
,1512993493001
NMEA,$GPGSV,8,1,27,2,20,320,10,3,43,148,29,4,5,,32,6,36,284,28*70
,1512993493001
NMEA,$GPGSV,8,2,27,7,14,208,21,9,54,262,25,16,22,111,29,22,22,144,21*7B
,1512993493001
NMEA,$GPGSV,8,3,27,23,87,154,31,26,29,77,34,29,5,14,23,31,13,46,28*71
,1512993493001
NMEA,$GLGSV,8,4,27,69,33,111,24,70,82,345,25,71,30,300,33,73,6,184,*55
,1512993493001
NMEA,$GLGSV,8,5,27,78,6,22,24,79,43,45,22,80,50,152,22,86,23,289,27*58
,1512993493001
NMEA,$GLGSV,8,6,27,87,18,348,22*57
,1512993493001
NMEA,$BDGSV,8,7,27,202,12,128,,205,21,154,18,207,41,69,20,209,17,101,23*56
,1512993493001
NMEA,$BDGSV,8,8,27,210,48,108,29,214,70,149,23*6D
,1512993493001
NMEA,$GPRMC,115813.00,A,5559.0020,N,03712.5781,E,0.000,197.569,111217,,E,A*16
,1512993493001
Fix,gps,55.983367,37.209635,235.029784,0.000000,5.000000,1512993494000
Raw,433217120,1197028712000000000,18,0.0,0,539910.6858248112,333.564095198152,773.8091699541669,0.0,0,9,2.2E-7,3,9000000000,0,26.0,162.707925243536,0.1,0,0.0,0.0,,,0.5,,0,,1,,
Raw,433217122,1197028712000000000,18,0.0,0,539910.6858248112,333.564095198152,773.8091699541669,0.0,0,6,2.2E-7,3,5000000000,0,29.0,-262.98919410421513,0.1,0,0.0,0.0,,,0.5,,0,,1,,
Raw,433217123,1197028712000000000,18,0.0,0,539910.6858248112,333.564095198152,773.8091699541669,0.0,0,29,2.2E-7,15,129512000000000,0,24.0,44.24829721590504,0.1,0,0.0,0.0,,,0.5,,0,,1,,
Raw,433217124,1197028712000000000,18,0.0,0,539910.6858248112,333.564095198152,773.8091699541669,0.0,0,2,2.2E-7,3,19000000000,0,10.0,118.69528746372089,0.1,0,0.0,0.0,,,0.5,,0,,1,,
Raw,433217124,1197028712000000000,18,0.0,0,539910.6858248112,333.564095198152,773.8091699541669,0.0,0,16,2.2E-7,15,129512000000000,0,30.0,313.77868625475094,0.1,0,0.0,0.0,,,0.5,,0,,1,,
Raw,433217125,1197028712000000000,18,0.0,0,539910.6858248112,333.564095198152,773.8091699541669,0.0,0,26,2.2E-7,3,3000000000,0,36.0,-80.32495870813727,0.1,0,0.0,0.0,,,0.5,,0,,1,,
Raw,433217126,1197028712000000000,18,0.0,0,539910.6858248112,333.564095198152,773.8091699541669,0.0,0,31,2.2E-7,3,18000000000,0,32.0,-914.3641704819165,0.1,0,0.0,0.0,,,0.5,,0,,1,,
Raw,433217126,1197028712000000000,18,0.0,0,539910.6858248112,333.564095198152,773.8091699541669,0.0,0,4,2.2E-7,15,129512000000000,0,34.0,-271.8542287077289,0.1,0,0.0,0.0,,,0.5,,0,,1,,
Raw,433217127,1197028712000000000,18,0.0,0,539910.6858248112,333.564095198152,773.8091699541669,0.0,0,7,2.2E-7,3,18000000000,0,23.0,453.2176533471793,0.1,0,0.0,0.0,,,0.5,,0,,1,,
Raw,433217127,1197028712000000000,18,0.0,0,539910.6858248112,333.564095198152,773.8091699541669,0.0,0,23,2.2E-7,15,129512000000000,0,35.0,-207.8667510834057,0.1,0,0.0,0.0,,,0.5,,0,,1,,
Raw,433217128,1197028712000000000,18,0.0,0,539910.6858248112,333.564095198152,773.8091699541669,0.0,0,22,2.2E-7,3,1000000000,0,21.0,-876.0078721980099,0.1,0,0.0,0.0,,,0.5,,0,,1,,
Raw,433217128,1197028712000000000,18,0.0,0,539910.6858248112,333.564095198152,773.8091699541669,0.0,0,3,2.2E-7,3,7000000000,0,32.0,-771.410552733345,0.1,0,0.0,0.0,,,0.5,,0,,1,,
NMEA,$GPGGA,115814.00,5559.0020,N,03712.5781,E,1,21,0.583,235.030,M,,M,0,*42
,1512993494001
NMEA,$GNGSA,A,3,2,3,6,7,9,16,22,23,26,31,205,207,209,210,214,69,71,78,79,80,1.119,0.583,0.955*27
,1512993494001
NMEA,$GPGSA,A,3,2,3,6,7,9,16,22,23,26,31,,,,,,,,,,,1.119,0.583,0.955*04
,1512993494001
NMEA,$GLGSA,A,3,69,71,78,79,80,87,,,,,,,,,,,,,,,1.119,0.583,0.955*2E
,1512993494001
NMEA,$BDGSA,A,3,205,207,209,210,214,,,,,,,,,,,,,,,,1.119,0.583,0.955*11
,1512993494001
NMEA,$QZGSA,A,3,,,,,,,,,,,,,,,,,,,,,1.119,0.583,0.955*21
,1512993494001
NMEA,$GPGSV,8,1,27,2,20,320,8,3,43,148,30,4,5,,32,6,36,284,27*4E
,1512993494001
NMEA,$GPGSV,8,2,27,7,14,208,21,9,54,262,24,16,22,111,28,22,22,144,19*70
,1512993494001
NMEA,$GPGSV,8,3,27,23,87,153,33,26,29,77,34,29,5,14,22,31,13,46,30*7C
,1512993494001
NMEA,$GLGSV,8,4,27,69,33,112,25,70,82,345,26,71,30,300,34,73,6,184,*53
,1512993494001
NMEA,$GLGSV,8,5,27,78,6,22,23,79,43,45,24,80,50,152,23,86,23,289,28*57
,1512993494001
NMEA,$GLGSV,8,6,27,87,18,348,22*57
,1512993494001
NMEA,$BDGSV,8,7,27,202,12,128,,205,21,154,18,207,41,69,23,209,17,101,23*55
,1512993494001
NMEA,$BDGSV,8,8,27,210,48,108,29,214,70,149,21*6F
,1512993494001
NMEA,$GPRMC,115814.00,A,5559.0020,N,03712.5781,E,0.000,197.569,111217,,E,A*11
,1512993494001
Raw,433218139,1197028713000000000,18,0.0,0,540682.8262680706,333.564095198152,773.1878989951662,0.0,0,9,2.2E-7,3,9000000000,0,30.0,162.61471297964454,0.1,0,0.0,0.0,,,0.5,,0,,1,,
Raw,433218139,1197028713000000000,18,0.0,0,540682.8262680706,333.564095198152,773.1878989951662,0.0,0,6,2.2E-7,3,5000000000,0,28.0,-262.70188100845553,0.1,0,0.0,0.0,,,0.5,,0,,1,,
Raw,433218140,1197028713000000000,18,0.0,0,540682.8262680706,333.564095198152,773.1878989951662,0.0,0,29,2.2E-7,3,16000000000,0,27.0,44.660624406766146,0.1,0,0.0,0.0,,,0.5,,0,,1,,
Raw,433218141,1197028713000000000,18,0.0,0,540682.8262680706,333.564095198152,773.1878989951662,0.0,0,2,2.2E-7,3,19000000000,0,11.0,119.71404267731123,0.1,0,0.0,0.0,,,0.5,,0,,1,,
Raw,433218141,1197028713000000000,18,0.0,0,540682.8262680706,333.564095198152,773.1878989951662,0.0,0,16,2.2E-7,15,129513000000000,0,31.0,313.99910584348254,0.1,0,0.0,0.0,,,0.5,,0,,1,,
Raw,433218142,1197028713000000000,18,0.0,0,540682.8262680706,333.564095198152,773.1878989951662,0.0,0,26,2.2E-7,3,3000000000,0,32.0,-80.1166018829681,0.1,0,0.0,0.0,,,0.5,,0,,1,,
Raw,433218143,1197028713000000000,18,0.0,0,540682.8262680706,333.564095198152,773.1878989951662,0.0,0,31,2.2E-7,3,18000000000,0,33.0,-914.2830209815875,0.1,0,0.0,0.0,,,0.5,,0,,1,,
Raw,433218144,1197028713000000000,18,0.0,0,540682.8262680706,333.564095198152,773.1878989951662,0.0,0,4,2.2E-7,15,129513000000000,0,32.0,-271.8531320928596,0.1,0,0.0,0.0,,,0.5,,0,,1,,
Raw,433218144,1197028713000000000,18,0.0,0,540682.8262680706,333.564095198152,773.1878989951662,0.0,0,7,2.2E-7,3,18000000000,0,23.0,454.0324381950777,0.1,0,0.0,0.0,,,0.5,,0,,1,,
Raw,433218145,1197028713000000000,18,0.0,0,540682.8262680706,333.564095198152,773.1878989951662,0.0,0,23,2.2E-7,15,129513000000000,0,36.0,-208.06194853014313,0.1,0,0.0,0.0,,,0.5,,0,,1,,
Raw,433218149,1197028713000000000,18,0.0,0,540682.8262680706,333.564095198152,773.1878989951662,0.0,0,22,2.2E-7,3,1000000000,0,23.0,-877.304070973536,0.1,0,0.0,0.0,,,0.5,,0,,1,,
Raw,433218150,1197028713000000000,18,0.0,0,540682.8262680706,333.564095198152,773.1878989951662,0.0,0,3,2.2E-7,3,7000000000,0,34.0,-771.241674043471,0.1,0,0.0,0.0,,,0.5,,0,,1,,
Fix,gps,55.983367,37.209635,235.029784,0.000000,5.000000,1512993495000
NMEA,$GPGGA,115815.00,5559.0020,N,03712.5781,E,1,22,0.573,235.030,M,,M,0,*4F
,1512993495029
NMEA,$GNGSA,A,3,2,3,6,7,9,16,22,23,26,29,31,205,207,209,210,214,69,71,78,79,1.083,0.573,0.920*2B
,1512993495029
NMEA,$GPGSA,A,3,2,3,6,7,9,16,22,23,26,29,31,,,,,,,,,,1.083,0.573,0.920*00
,1512993495029
NMEA,$GLGSA,A,3,69,71,78,79,80,87,,,,,,,,,,,,,,,1.083,0.573,0.920*21
,1512993495029
NMEA,$BDGSA,A,3,205,207,209,210,214,,,,,,,,,,,,,,,,1.083,0.573,0.920*1E
,1512993495029
NMEA,$QZGSA,A,3,,,,,,,,,,,,,,,,,,,,,1.083,0.573,0.920*2E
,1512993495029
NMEA,$GPGSV,8,1,27,2,20,320,9,3,43,148,32,4,5,,30,6,36,284,26*4E
,1512993495029
NMEA,$GPGSV,8,2,27,7,14,208,21,9,54,262,28,16,22,111,29,22,22,144,21*76
,1512993495029
NMEA,$GPGSV,8,3,27,23,87,153,34,26,29,77,30,29,5,14,25,31,13,46,31*79
,1512993495029
NMEA,$GLGSV,8,4,27,69,33,112,26,70,82,345,25,71,30,300,33,73,6,184,*54
,1512993495029
NMEA,$GLGSV,8,5,27,78,6,22,24,79,43,45,29,80,50,152,23,86,23,289,26*53
,1512993495029
NMEA,$GLGSV,8,6,27,87,18,348,21*54
,1512993495029
NMEA,$BDGSV,8,7,27,202,12,128,,205,21,154,19,207,41,69,26,209,17,101,18*59
,1512993495029
NMEA,$BDGSV,8,8,27,210,48,108,30,214,70,149,25*63
,1512993495029
NMEA,$GPRMC,115815.00,A,5559.0020,N,03712.5781,E,0.000,197.569,111217,,E,A*10
,1512993495029
Fix,gps,55.983367,37.209635,235.029784,0.000000,5.000000,1512993496000
NMEA,$GPGGA,115816.00,5559.0020,N,03712.5781,E,1,22,0.573,235.030,M,,M,0,*4C
,1512993496000
Raw,433219142,1197028714000000000,18,0.0,0,541455.1947072216,333.564095198152,773.5115090923152,0.0,0,9,2.2E-7,3,9000000000,0,26.0,162.73424400039949,0.1,0,0.0,0.0,,,0.5,,0,,1,,
Raw,433219142,1197028714000000000,18,0.0,0,541455.1947072216,333.564095198152,773.5115090923152,0.0,0,6,2.2E-7,3,5000000000,0,28.0,-263.04512146255,0.1,0,0.0,0.0,,,0.5,,0,,1,,
Raw,433219143,1197028714000000000,18,0.0,0,541455.1947072216,333.564095198152,773.5115090923152,0.0,0,29,2.2E-7,3,16000000000,0,23.0,44.538900156272575,0.1,0,0.0,0.0,,,0.5,,0,,1,,
Raw,433219143,1197028714000000000,18,0.0,0,541455.1947072216,333.564095198152,773.5115090923152,0.0,0,2,2.2E-7,3,19000000000,0,13.0,120.69002991099842,0.1,0,0.0,0.0,,,0.5,,0,,1,,
Raw,433219144,1197028714000000000,18,0.0,0,541455.1947072216,333.564095198152,773.5115090923152,0.0,0,16,2.2E-7,15,129514000000000,0,31.0,313.8346136130858,0.1,0,0.0,0.0,,,0.5,,0,,1,,
Raw,433219144,1197028714000000000,18,0.0,0,541455.1947072216,333.564095198152,773.5115090923152,0.0,0,26,2.2E-7,3,3000000000,0,38.0,-80.35895376908593,0.1,0,0.0,0.0,,,0.5,,0,,1,,
Raw,433219144,1197028714000000000,18,0.0,0,541455.1947072216,333.564095198152,773.5115090923152,0.0,0,31,2.2E-7,3,18000000000,0,28.0,-914.4200978402514,0.1,0,0.0,0.0,,,0.5,,0,,1,,
Raw,433219145,1197028714000000000,18,0.0,0,541455.1947072216,333.564095198152,773.5115090923152,0.0,0,4,2.2E-7,15,129514000000000,0,34.0,-271.9562138905749,0.1,0,0.0,0.0,,,0.5,,0,,1,,
Raw,433219145,1197028714000000000,18,0.0,0,541455.1947072216,333.564095198152,773.5115090923152,0.0,0,7,2.2E-7,3,18000000000,0,24.0,454.7529141642153,0.1,0,0.0,0.0,,,0.5,,0,,1,,
Raw,433219146,1197028714000000000,18,0.0,0,541455.1947072216,333.564095198152,773.5115090923152,0.0,0,23,2.2E-7,15,129514000000000,0,34.0,-208.251662902534,0.1,0,0.0,0.0,,,0.5,,0,,1,,
Raw,433219146,1197028714000000000,18,0.0,0,541455.1947072216,333.564095198152,773.5115090923152,0.0,0,22,2.2E-7,3,1000000000,0,22.0,-876.7294447820168,0.1,0,0.0,0.0,,,0.5,,0,,1,,
Raw,433219146,1197028714000000000,18,0.0,0,541455.1947072216,333.564095198152,773.5115090923152,0.0,0,3,2.2E-7,3,6000000000,0,34.0,-771.4149391928222,0.1,0,0.0,0.0,,,0.5,,0,,1,,
NMEA,$GNGSA,A,3,2,3,6,7,9,16,22,23,26,29,31,205,207,209,210,214,69,71,78,79,1.083,0.573,0.920*2B
,1512993496000
NMEA,$GPGSA,A,3,2,3,6,7,9,16,22,23,26,29,31,,,,,,,,,,1.083,0.573,0.920*00
,1512993496000
NMEA,$GLGSA,A,3,69,71,78,79,80,87,,,,,,,,,,,,,,,1.083,0.573,0.920*21
,1512993496000
NMEA,$BDGSA,A,3,205,207,209,210,214,,,,,,,,,,,,,,,,1.083,0.573,0.920*1E
,1512993496000
NMEA,$QZGSA,A,3,,,,,,,,,,,,,,,,,,,,,1.083,0.573,0.920*2E
,1512993496000
NMEA,$GPGSV,8,1,27,2,20,320,11,3,43,148,32,4,5,,32,6,36,284,26*75
,1512993496000
NMEA,$GPGSV,8,2,27,7,14,208,22,9,54,262,24,16,22,111,29,22,22,144,20*78
,1512993496000
NMEA,$GPGSV,8,3,27,23,87,153,32,26,29,77,36,29,5,14,21,31,13,46,26*7B
,1512993496000
NMEA,$GLGSV,8,4,27,69,33,112,26,70,82,345,24,71,30,300,32,73,6,184,*54
,1512993496000
NMEA,$GLGSV,8,5,27,78,6,22,24,79,43,45,28,80,50,152,26,86,23,289,23*52
,1512993496000
NMEA,$GLGSV,8,6,27,87,18,348,23*56
,1512993496000
NMEA,$BDGSV,8,7,27,202,12,128,,205,21,154,19,207,41,69,25,209,17,101,24*55
,1512993496000
NMEA,$BDGSV,8,8,27,210,48,108,30,214,70,149,28*6E
,1512993496000
NMEA,$GPRMC,115816.00,A,5559.0020,N,03712.5781,E,0.000,197.569,111217,,E,A*13
,1512993496000
Raw,433220164,1197028715000000000,18,0.0,0,542228.2191065865,333.564095198152,773.3547547973232,0.0,0,9,2.2E-7,3,9000000000,0,26.0,162.5829111484345,0.1,0,0.0,0.0,,,0.5,,0,,1,,
Raw,433220165,1197028715000000000,18,0.0,0,542228.2191065865,333.564095198152,773.3547547973232,0.0,0,6,2.2E-7,3,5000000000,0,28.0,-263.24909182824194,0.1,0,0.0,0.0,,,0.5,,0,,1,,
Raw,433220165,1197028715000000000,18,0.0,0,542228.2191065865,333.564095198152,773.3547547973232,0.0,0,29,2.2E-7,15,129515000000000,0,26.0,44.48735925741494,0.1,0,0.0,0.0,,,0.5,,0,,1,,
Raw,433220166,1197028715000000000,18,0.0,0,542228.2191065865,333.564095198152,773.3547547973232,0.0,0,2,2.2E-7,3,19000000000,0,15.0,121.45546708977781,0.1,0,0.0,0.0,,,0.5,,0,,1,,
Raw,433220166,1197028715000000000,18,0.0,0,542228.2191065865,333.564095198152,773.3547547973232,0.0,0,16,2.2E-7,15,129515000000000,0,31.0,313.91576311341487,0.1,0,0.0,0.0,,,0.5,,0,,1,,
Raw,433220167,1197028715000000000,18,0.0,0,542228.2191065865,333.564095198152,773.3547547973232,0.0,0,26,2.2E-7,3,3000000000,0,36.0,-80.51686631026678,0.1,0,0.0,0.0,,,0.5,,0,,1,,
Raw,433220167,1197028715000000000,18,0.0,0,542228.2191065865,333.564095198152,773.3547547973232,0.0,0,31,2.2E-7,3,18000000000,0,31.0,-914.4990541108418,0.1,0,0.0,0.0,,,0.5,,0,,1,,
Raw,433220168,1197028715000000000,18,0.0,0,542228.2191065865,333.564095198152,773.3547547973232,0.0,0,4,2.2E-7,15,129515000000000,0,32.0,-272.1382519588806,0.1,0,0.0,0.0,,,0.5,,0,,1,,
Raw,433220168,1197028715000000000,18,0.0,0,542228.2191065865,333.564095198152,773.3547547973232,0.0,0,7,2.2E-7,3,18000000000,0,21.0,455.09834784804843,0.1,0,0.0,0.0,,,0.5,,0,,1,,
Raw,433220168,1197028715000000000,18,0.0,0,542228.2191065865,333.564095198152,773.3547547973232,0.0,0,23,2.2E-7,15,129515000000000,0,35.0,-208.07620452344418,0.1,0,0.0,0.0,,,0.5,,0,,1,,
Raw,433220169,1197028715000000000,18,0.0,0,542228.2191065865,333.564095198152,773.3547547973232,0.0,0,22,2.2E-7,3,1000000000,0,21.0,-876.0265146507882,0.1,0,0.0,0.0,,,0.5,,0,,1,,
Raw,433220169,1197028715000000000,18,0.0,0,542228.2191065865,333.564095198152,773.3547547973232,0.0,0,3,2.2E-7,3,6000000000,0,35.0,-771.5399532879237,0.1,0,0.0,0.0,,,0.5,,0,,1,,
NMEA,$GPGGA,115817.00,5559.0020,N,03712.5781,E,1,22,0.573,235.030,M,,M,0,*4D
,1512993497000
NMEA,$GNGSA,A,3,2,3,6,7,9,16,22,23,26,29,31,205,207,209,210,214,69,71,78,79,1.083,0.573,0.920*2B
,1512993497000
NMEA,$GPGSA,A,3,2,3,6,7,9,16,22,23,26,29,31,,,,,,,,,,1.083,0.573,0.920*00
,1512993497000
NMEA,$GLGSA,A,3,69,71,78,79,80,87,,,,,,,,,,,,,,,1.083,0.573,0.920*21
,1512993497000
NMEA,$BDGSA,A,3,205,207,209,210,214,,,,,,,,,,,,,,,,1.083,0.573,0.920*1E
,1512993497000
NMEA,$QZGSA,A,3,,,,,,,,,,,,,,,,,,,,,1.083,0.573,0.920*2E
,1512993497000
NMEA,$GPGSV,8,1,27,2,20,320,13,3,43,148,33,4,5,,30,6,36,284,26*74
,1512993497000
NMEA,$GPGSV,8,2,27,7,14,208,19,9,54,262,24,16,22,111,29,22,22,144,19*7A
,1512993497000
NMEA,$GPGSV,8,3,27,23,87,153,33,26,29,77,34,29,5,14,24,31,13,46,29*72
,1512993497000
NMEA,$GLGSV,8,4,27,69,33,112,25,70,82,346,26,71,30,300,33,73,6,184,*57
,1512993497000
NMEA,$GLGSV,8,5,27,78,6,22,25,79,43,45,21,80,50,152,26,86,23,289,25*5C
,1512993497000
NMEA,$GLGSV,8,6,27,87,18,348,22*57
,1512993497000
NMEA,$BDGSV,8,7,27,202,12,128,,205,21,154,19,207,41,69,24,209,17,101,22*52
,1512993497000
NMEA,$BDGSV,8,8,27,210,48,108,29,214,70,149,27*69
,1512993497000
NMEA,$GPRMC,115817.00,A,5559.0020,N,03712.5781,E,0.000,197.569,111217,,E,A*12
,1512993497000
Fix,gps,55.983367,37.209635,235.029784,0.000000,5.000000,1512993497000
Raw,433221113,1197028716000000000,18,0.0,0,543000.5709486046,333.564095198152,772.7413033581508,0.0,0,9,2.2E-7,3,9000000000,0,29.0,162.74301691935398,0.1,0,0.0,0.0,,,0.5,,0,,1,,
Raw,433221114,1197028716000000000,18,0.0,0,543000.5709486046,333.564095198152,772.7413033581508,0.0,0,6,2.2E-7,3,5000000000,0,31.0,-263.26773428102024,0.1,0,0.0,0.0,,,0.5,,0,,1,,
Raw,433221114,1197028716000000000,18,0.0,0,543000.5709486046,333.564095198152,772.7413033581508,0.0,0,29,2.2E-7,15,129516000000000,0,28.0,44.32396364188753,0.1,0,0.0,0.0,,,0.5,,0,,1,,
Raw,433221115,1197028716000000000,18,0.0,0,543000.5709486046,333.564095198152,772.7413033581508,0.0,0,2,2.2E-7,3,19000000000,0,17.0,122.35140143800527,0.1,0,0.0,0.0,,,0.5,,0,,1,,
Raw,433221115,1197028716000000000,18,0.0,0,543000.5709486046,333.564095198152,772.7413033581508,0.0,0,16,2.2E-7,15,129516000000000,0,32.0,313.93221233645454,0.1,0,0.0,0.0,,,0.5,,0,,1,,
Raw,433221116,1197028716000000000,18,0.0,0,543000.5709486046,333.564095198152,772.7413033581508,0.0,0,26,2.2E-7,3,3000000000,0,35.0,-80.42913712072186,0.1,0,0.0,0.0,,,0.5,,0,,1,,
Raw,433221116,1197028716000000000,18,0.0,0,543000.5709486046,333.564095198152,772.7413033581508,0.0,0,31,2.2E-7,3,18000000000,0,33.0,-914.3192092722747,0.1,0,0.0,0.0,,,0.5,,0,,1,,
Raw,433221117,1197028716000000000,18,0.0,0,543000.5709486046,333.564095198152,772.7413033581508,0.0,0,4,2.2E-7,15,129516000000000,0,31.0,-271.8816440794617,0.1,0,0.0,0.0,,,0.5,,0,,1,,
Raw,433221117,1197028716000000000,18,0.0,0,543000.5709486046,333.564095198152,772.7413033581508,0.0,0,7,2.2E-7,3,18000000000,0,25.0,455.7442540060729,0.1,0,0.0,0.0,,,0.5,,0,,1,,
Raw,433221118,1197028716000000000,18,0.0,0,543000.5709486046,333.564095198152,772.7413033581508,0.0,0,23,2.2E-7,15,129516000000000,0,37.0,-208.7308836004231,0.1,0,0.0,0.0,,,0.5,,0,,1,,
Raw,433221118,1197028716000000000,18,0.0,0,543000.5709486046,333.564095198152,772.7413033581508,0.0,0,22,2.2E-7,3,1000000000,0,21.0,-875.1722516675945,0.1,0,0.0,0.0,,,0.5,,0,,1,,
Raw,433221118,1197028716000000000,18,0.0,0,543000.5709486046,333.564095198152,772.7413033581508,0.0,0,3,2.2E-7,3,6000000000,0,34.0,-771.3677847534418,0.1,0,0.0,0.0,,,0.5,,0,,1,,
NMEA,$GPGGA,115818.00,5559.0020,N,03712.5781,E,1,22,0.573,235.030,M,,M,0,*42
,1512993498000
NMEA,$GNGSA,A,3,2,3,6,7,9,16,22,23,26,29,31,205,207,209,210,214,69,71,78,79,1.083,0.573,0.920*2B
,1512993498000
NMEA,$GPGSA,A,3,2,3,6,7,9,16,22,23,26,29,31,,,,,,,,,,1.083,0.573,0.920*00
,1512993498000
NMEA,$GLGSA,A,3,69,71,78,79,80,87,,,,,,,,,,,,,,,1.083,0.573,0.920*21
,1512993498000
NMEA,$BDGSA,A,3,205,207,209,210,214,,,,,,,,,,,,,,,,1.083,0.573,0.920*1E
,1512993498000
NMEA,$QZGSA,A,3,,,,,,,,,,,,,,,,,,,,,1.083,0.573,0.920*2E
,1512993498000
NMEA,$GPGSV,8,1,27,2,20,320,15,3,43,148,32,4,5,,29,6,36,284,29*74
,1512993498000
NMEA,$GPGSV,8,2,27,7,14,208,23,9,54,262,27,16,22,111,30,22,22,144,19*78
,1512993498000
NMEA,$GPGSV,8,3,27,23,87,153,35,26,29,77,33,29,5,14,26,31,13,46,31*78
,1512993498000
NMEA,$GLGSV,8,4,27,69,33,112,25,70,82,346,26,71,30,300,35,73,6,184,*51
,1512993498000
NMEA,$GLGSV,8,5,27,78,6,22,20,79,43,45,24,80,50,152,24,86,23,289,24*5F
,1512993498000
NMEA,$GLGSV,8,6,27,87,18,348,21*54
,1512993498000
NMEA,$BDGSV,8,7,27,202,12,128,,205,21,154,19,207,41,69,26,209,17,101,20*52
,1512993498000
NMEA,$BDGSV,8,8,27,210,48,108,30,214,70,149,27*61
,1512993498000
NMEA,$GPRMC,115818.00,A,5559.0020,N,03712.5781,E,0.000,197.569,111217,,E,A*1D
,1512993498000
Fix,gps,55.983367,37.209635,235.029784,0.000000,5.000000,1512993498000
Raw,433222141,1197028717000000000,18,0.0,0,543771.3420004656,333.564095198152,772.5305749461916,0.0,0,9,2.2E-7,3,9000000000,0,28.0,162.45241397898644,0.1,0,0.0,0.0,,,0.5,,0,,1,,
Raw,433222141,1197028717000000000,18,0.0,0,543771.3420004656,333.564095198152,772.5305749461916,0.0,0,6,2.2E-7,3,5000000000,0,33.0,-263.23812567954883,0.1,0,0.0,0.0,,,0.5,,0,,1,,
Raw,433222142,1197028717000000000,18,0.0,0,543771.3420004656,333.564095198152,772.5305749461916,0.0,0,29,2.2E-7,3,15000000000,0,29.0,44.1868867832236,0.1,0,0.0,0.0,,,0.5,,0,,1,,
Raw,433222142,1197028717000000000,18,0.0,0,543771.3420004656,333.564095198152,772.5305749461916,0.0,0,2,2.2E-7,3,19000000000,0,19.0,122.94467008230276,0.1,0,0.0,0.0,,,0.5,,0,,1,,
Raw,433222142,1197028717000000000,18,0.0,0,543771.3420004656,333.564095198152,772.5305749461916,0.0,0,16,2.2E-7,15,129517000000000,0,31.0,314.04626028286293,0.1,0,0.0,0.0,,,0.5,,0,,1,,
Raw,433222143,1197028717000000000,18,0.0,0,543771.3420004656,333.564095198152,772.5305749461916,0.0,0,26,2.2E-7,3,3000000000,0,35.0,-80.44668295863084,0.1,0,0.0,0.0,,,0.5,,0,,1,,
Raw,433222143,1197028717000000000,18,0.0,0,543771.3420004656,333.564095198152,772.5305749461916,0.0,0,31,2.2E-7,3,17000000000,0,34.0,-914.4694455093704,0.1,0,0.0,0.0,,,0.5,,0,,1,,
Raw,433222143,1197028717000000000,18,0.0,0,543771.3420004656,333.564095198152,772.5305749461916,0.0,0,4,2.2E-7,15,129517000000000,0,31.0,-272.10754674253985,0.1,0,0.0,0.0,,,0.5,,0,,1,,
Raw,433222144,1197028717000000000,18,0.0,0,543771.3420004656,333.564095198152,772.5305749461916,0.0,0,7,2.2E-7,7,0,0,25.0,456.5042081105057,0.1,0,0.0,0.0,,,0.5,,0,,1,,
Raw,433222144,1197028717000000000,18,0.0,0,543771.3420004656,333.564095198152,772.5305749461916,0.0,0,23,2.2E-7,15,129517000000000,0,35.0,-208.14090480073355,0.1,0,0.0,0.0,,,0.5,,0,,1,,
Raw,433222145,1197028717000000000,18,0.0,0,543771.3420004656,333.564095198152,772.5305749461916,0.0,0,22,2.2E-7,3,1000000000,0,21.0,-876.2973785235081,0.1,0,0.0,0.0,,,0.5,,0,,1,,
Raw,433222145,1197028717000000000,18,0.0,0,543771.3420004656,333.564095198152,772.5305749461916,0.0,0,3,2.2E-7,3,6000000000,0,36.0,-771.2756691044196,0.1,0,0.0,0.0,,,0.5,,0,,1,,
NMEA,$GPGGA,115819.00,5559.0020,N,03712.5781,E,1,22,0.573,235.030,M,,M,0,*43
,1512993499001
NMEA,$GNGSA,A,3,2,3,6,7,9,16,22,23,26,29,31,205,207,209,210,214,69,71,78,79,1.083,0.573,0.920*2B
,1512993499001
NMEA,$GPGSA,A,3,2,3,6,7,9,16,22,23,26,29,31,,,,,,,,,,1.083,0.573,0.920*00
,1512993499001
NMEA,$GLGSA,A,3,69,71,78,79,80,87,,,,,,,,,,,,,,,1.083,0.573,0.920*21
,1512993499001
NMEA,$BDGSA,A,3,205,207,209,210,214,,,,,,,,,,,,,,,,1.083,0.573,0.920*1E
,1512993499001
NMEA,$QZGSA,A,3,,,,,,,,,,,,,,,,,,,,,1.083,0.573,0.920*2E
,1512993499001
NMEA,$GPGSV,8,1,27,2,20,320,17,3,43,148,34,4,5,,29,6,36,284,31*79
,1512993499001
NMEA,$GPGSV,8,2,27,7,14,208,23,9,54,262,26,16,22,111,29,22,22,144,19*71
,1512993499001
NMEA,$GPGSV,8,3,27,23,87,153,33,26,29,77,33,29,5,14,27,31,13,46,32*7C
,1512993499001
NMEA,$GLGSV,8,4,27,69,33,112,26,70,82,346,28,71,30,300,33,73,6,184,*5A
,1512993499001
NMEA,$GLGSV,8,5,27,78,6,22,25,79,43,45,25,80,50,152,20,86,23,289,22*59
,1512993499001
NMEA,$GLGSV,8,6,27,87,18,348,24*51
,1512993499001
NMEA,$BDGSV,8,7,27,202,12,128,,205,21,154,18,207,41,69,27,209,17,101,24*56
,1512993499001
NMEA,$BDGSV,8,8,27,210,48,108,31,214,70,149,28*6F
,1512993499001
NMEA,$GPRMC,115819.00,A,5559.0020,N,03712.5781,E,0.000,197.569,111217,,E,A*1C
,1512993499001
Fix,gps,55.983367,37.209635,235.029784,0.000000,5.000000,1512993499000
NMEA,$GPGGA,115820.00,5559.0020,N,03712.5781,E,1,22,0.573,235.030,M,,M,0,*49
,1512993500000
NMEA,$GNGSA,A,3,2,3,6,7,9,16,22,23,26,29,31,205,207,209,210,214,69,71,78,79,1.083,0.573,0.920*2B
,1512993500000
Raw,433223124,1197028718000000000,18,0.0,0,544543.7015104037,333.564095198152,772.5099668802637,0.0,0,9,2.2E-7,3,10000000000,0,29.0,162.4864090399351,0.1,0,0.0,0.0,,,0.5,,0,,1,,
Raw,433223125,1197028718000000000,18,0.0,0,544543.7015104037,333.564095198152,772.5099668802637,0.0,0,6,2.2E-7,3,6000000000,0,30.0,-263.49034709949046,0.1,0,0.0,0.0,,,0.5,,0,,1,,
Raw,433223125,1197028718000000000,18,0.0,0,544543.7015104037,333.564095198152,772.5099668802637,0.0,0,29,2.2E-7,3,16000000000,0,25.0,44.667204095982015,0.1,0,0.0,0.0,,,0.5,,0,,1,,
Raw,433223126,1197028718000000000,18,0.0,0,544543.7015104037,333.564095198152,772.5099668802637,0.0,0,2,2.2E-7,3,0,0,19.0,123.88995209964924,0.1,0,0.0,0.0,,,0.5,,0,,1,,
Raw,433223126,1197028718000000000,18,0.0,0,544543.7015104037,333.564095198152,772.5099668802637,0.0,0,16,2.2E-7,15,129518000000000,0,32.0,313.8971206606366,0.1,0,0.0,0.0,,,0.5,,0,,1,,
Raw,433223126,1197028718000000000,18,0.0,0,544543.7015104037,333.564095198152,772.5099668802637,0.0,0,26,2.2E-7,3,4000000000,0,35.0,-80.45326264784671,0.1,0,0.0,0.0,,,0.5,,0,,1,,
Raw,433223127,1197028718000000000,18,0.0,0,544543.7015104037,333.564095198152,772.5099668802637,0.0,0,31,2.2E-7,3,18000000000,0,30.0,-914.0220266426913,0.1,0,0.0,0.0,,,0.5,,0,,1,,
Raw,433223127,1197028718000000000,18,0.0,0,544543.7015104037,333.564095198152,772.5099668802637,0.0,0,4,2.2E-7,3,4000000000,0,32.0,-272.0362667760346,0.1,0,0.0,0.0,,,0.5,,0,,1,,
Raw,433223128,1197028718000000000,18,0.0,0,544543.7015104037,333.564095198152,772.5099668802637,0.0,0,7,2.2E-7,3,19000000000,0,25.0,456.98562203813344,0.1,0,0.0,0.0,,,0.5,,0,,1,,
Raw,433223128,1197028718000000000,18,0.0,0,544543.7015104037,333.564095198152,772.5099668802637,0.0,0,23,2.2E-7,15,129518000000000,0,34.0,-208.3470683961641,0.1,0,0.0,0.0,,,0.5,,0,,1,,
Raw,433223129,1197028718000000000,18,0.0,0,544543.7015104037,333.564095198152,772.5099668802637,0.0,0,22,2.2E-7,3,1000000000,0,25.0,-876.0923115429468,0.1,0,0.0,0.0,,,0.5,,0,,1,,
Raw,433223129,1197028718000000000,18,0.0,0,544543.7015104037,333.564095198152,772.5099668802637,0.0,0,3,2.2E-7,3,7000000000,0,34.0,-771.5893009570427,0.1,0,0.0,0.0,,,0.5,,0,,1,,
NMEA,$GPGSA,A,3,2,3,6,7,9,16,22,23,26,29,31,,,,,,,,,,1.083,0.573,0.920*00
,1512993500000
NMEA,$GLGSA,A,3,69,71,78,79,80,87,,,,,,,,,,,,,,,1.083,0.573,0.920*21
,1512993500000
NMEA,$BDGSA,A,3,205,207,209,210,214,,,,,,,,,,,,,,,,1.083,0.573,0.920*1E
,1512993500000
NMEA,$QZGSA,A,3,,,,,,,,,,,,,,,,,,,,,1.083,0.573,0.920*2E
,1512993500000
NMEA,$GPGSV,8,1,27,2,20,320,17,3,43,148,32,4,5,,30,6,36,284,28*7F
,1512993500000
NMEA,$GPGSV,8,2,27,7,14,208,23,9,54,262,27,16,22,111,30,22,22,144,23*71
,1512993500000
NMEA,$GPGSV,8,3,27,23,87,152,32,26,29,77,33,29,5,14,23,31,13,46,28*73
,1512993500000
NMEA,$GLGSV,8,4,27,69,33,112,25,70,82,346,25,71,30,300,31,73,6,184,*56
,1512993500000
NMEA,$GLGSV,8,5,27,78,6,22,27,79,43,45,28,80,50,152,26,86,23,289,20*52
,1512993500000
NMEA,$GLGSV,8,6,27,87,18,348,21*54
,1512993500000
NMEA,$BDGSV,8,7,27,202,12,128,,205,21,154,18,207,41,69,25,209,17,101,25*55
,1512993500000
NMEA,$BDGSV,8,8,27,210,48,108,30,214,70,149,28*6E
,1512993500000
NMEA,$GPRMC,115820.00,A,5559.0020,N,03712.5781,E,0.000,197.569,111217,,E,A*16
,1512993500000
Fix,gps,55.983367,37.209635,235.029784,0.000000,5.000000,1512993500000
Raw,433224157,1197028719000000000,18,0.0,0,545316.0562454873,333.564095198152,772.3314956049275,0.0,0,9,2.2E-7,3,10000000000,0,32.0,162.01267141639255,0.1,0,0.0,0.0,,,0.5,,0,,1,,
Raw,433224158,1197028719000000000,18,0.0,0,545316.0562454873,333.564095198152,772.3314956049275,0.0,0,6,2.2E-7,3,6000000000,0,27.0,-263.63290703250095,0.1,0,0.0,0.0,,,0.5,,0,,1,,
Raw,433224159,1197028719000000000,18,0.0,0,545316.0562454873,333.564095198152,772.3314956049275,0.0,0,29,2.2E-7,3,16000000000,0,24.0,44.31738395267166,0.1,0,0.0,0.0,,,0.5,,0,,1,,
Raw,433224159,1197028719000000000,18,0.0,0,545316.0562454873,333.564095198152,772.3314956049275,0.0,0,2,2.2E-7,3,0,0,24.0,124.02702895831317,0.1,0,0.0,0.0,,,0.5,,0,,1,,
Raw,433224159,1197028719000000000,18,0.0,0,545316.0562454873,333.564095198152,772.3314956049275,0.0,0,16,2.2E-7,3,2000000000,0,30.0,313.726048741024,0.1,0,0.0,0.0,,,0.5,,0,,1,,
Raw,433224160,1197028719000000000,18,0.0,0,545316.0562454873,333.564095198152,772.3314956049275,0.0,0,26,2.2E-7,3,4000000000,0,30.0,-80.39623867464252,0.1,0,0.0,0.0,,,0.5,,0,,1,,
Raw,433224160,1197028719000000000,18,0.0,0,545316.0562454873,333.564095198152,772.3314956049275,0.0,0,31,2.2E-7,3,18000000000,0,30.0,-914.2588954544626,0.1,0,0.0,0.0,,,0.5,,0,,1,,
Raw,433224161,1197028719000000000,18,0.0,0,545316.0562454873,333.564095198152,772.3314956049275,0.0,0,4,2.2E-7,3,4000000000,0,26.0,-272.51877731853165,0.1,0,0.0,0.0,,,0.5,,0,,1,,
Raw,433224161,1197028719000000000,18,0.0,0,545316.0562454873,333.564095198152,772.3314956049275,0.0,0,7,2.2E-7,3,18000000000,0,24.0,456.65883080707863,0.1,0,0.0,0.0,,,0.5,,0,,1,,
Raw,433224162,1197028719000000000,18,0.0,0,545316.0562454873,333.564095198152,772.3314956049275,0.0,0,23,2.2E-7,15,129519000000000,0,27.0,-208.45892311283387,0.1,0,0.0,0.0,,,0.5,,0,,1,,
Raw,433224162,1197028719000000000,18,0.0,0,545316.0562454873,333.564095198152,772.3314956049275,0.0,0,22,2.2E-7,3,1000000000,0,28.0,-876.1109539957251,0.1,0,0.0,0.0,,,0.5,,0,,1,,
Raw,433224163,1197028719000000000,18,0.0,0,545316.0562454873,333.564095198152,772.3314956049275,0.0,0,3,2.2E-7,3,7000000000,0,33.0,-771.0980174955912,0.1,0,0.0,0.0,,,0.5,,0,,1,,
NMEA,$GPGGA,115821.00,5559.0020,N,03712.5781,E,1,22,0.573,235.030,M,,M,0,*48
,1512993501001
NMEA,$GNGSA,A,3,2,3,6,7,9,16,22,23,26,29,31,205,207,209,210,214,69,71,78,79,1.083,0.573,0.920*2B
,1512993501001
NMEA,$GPGSA,A,3,2,3,6,7,9,16,22,23,26,29,31,,,,,,,,,,1.083,0.573,0.920*00
,1512993501001
NMEA,$GLGSA,A,3,69,71,78,79,80,87,,,,,,,,,,,,,,,1.083,0.573,0.920*21
,1512993501001
NMEA,$BDGSA,A,3,205,207,209,210,214,,,,,,,,,,,,,,,,1.083,0.573,0.920*1E
,1512993501001
NMEA,$QZGSA,A,3,,,,,,,,,,,,,,,,,,,,,1.083,0.573,0.920*2E
,1512993501001
NMEA,$GPGSV,8,1,27,2,20,320,22,3,43,148,31,4,5,,24,6,36,284,25*72
,1512993501001
NMEA,$GPGSV,8,2,27,7,14,208,22,9,54,262,30,16,22,111,28,22,22,144,26*7A
,1512993501001
NMEA,$GPGSV,8,3,27,23,87,152,25,26,29,77,28,29,5,14,22,31,13,46,28*7E
,1512993501001
NMEA,$GLGSV,8,4,27,69,33,112,28,70,82,346,19,71,30,300,26,73,6,184,*52
,1512993501001
NMEA,$GLGSV,8,5,27,78,6,22,21,79,43,45,25,80,50,152,25,86,23,289,22*58
,1512993501001
NMEA,$GLGSV,8,6,27,87,18,348,19*5F
,1512993501001
NMEA,$BDGSV,8,7,27,202,12,128,,205,21,154,19,207,41,69,18,209,17,101,25*5A
,1512993501001
NMEA,$BDGSV,8,8,27,210,48,108,25,214,70,149,27*65
,1512993501001
NMEA,$GPRMC,115821.00,A,5559.0020,N,03712.5781,E,0.000,197.569,111217,,E,A*17
,1512993501001
Fix,gps,55.983367,37.209635,235.029784,0.000000,5.000000,1512993501000
Raw,433225177,1197028720000000000,18,0.0,0,546089.5827694151,333.564095198152,773.2177215619245,0.0,0,9,2.2E-7,3,10000000000,0,24.0,161.95784067292698,0.1,0,0.0,0.0,,,0.5,,0,,1,,
Raw,433225178,1197028720000000000,18,0.0,0,546089.5827694151,333.564095198152,773.2177215619245,0.0,0,6,2.2E-7,3,6000000000,0,28.0,-263.92899304721504,0.1,0,0.0,0.0,,,0.5,,0,,1,,
Raw,433225178,1197028720000000000,18,0.0,0,546089.5827694151,333.564095198152,773.2177215619245,0.0,0,29,2.2E-7,15,129520000000000,0,24.0,43.65831841621548,0.1,0,0.0,0.0,,,0.5,,0,,1,,
Raw,433225179,1197028720000000000,18,0.0,0,546089.5827694151,333.564095198152,773.2177215619245,0.0,0,2,2.2E-7,3,0,0,20.0,124.14875320880674,0.1,0,0.0,0.0,,,0.5,,0,,1,,
Raw,433225180,1197028720000000000,18,0.0,0,546089.5827694151,333.564095198152,773.2177215619245,0.0,0,16,2.2E-7,15,129520000000000,0,26.0,313.4200931924861,0.1,0,0.0,0.0,,,0.5,,0,,1,,
Raw,433225180,1197028720000000000,18,0.0,0,546089.5827694151,333.564095198152,773.2177215619245,0.0,0,26,2.2E-7,3,3000000000,0,25.0,-80.85023723053746,0.1,0,0.0,0.0,,,0.5,,0,,1,,
Raw,433225181,1197028720000000000,18,0.0,0,546089.5827694151,333.564095198152,773.2177215619245,0.0,0,31,2.2E-7,3,18000000000,0,33.0,-914.5856866855174,0.1,0,0.0,0.0,,,0.5,,0,,1,,
Raw,433225181,1197028720000000000,18,0.0,0,546089.5827694151,333.564095198152,773.2177215619245,0.0,0,4,2.2E-7,3,4000000000,0,29.0,-273.0385727665853,0.1,0,0.0,0.0,,,0.5,,0,,1,,
Raw,433225182,1197028720000000000,18,0.0,0,546089.5827694151,333.564095198152,773.2177215619245,0.0,0,7,2.2E-7,3,18000000000,0,24.0,456.4954351915512,0.1,0,0.0,0.0,,,0.5,,0,,1,,
Raw,433225182,1197028720000000000,18,0.0,0,546089.5827694151,333.564095198152,773.2177215619245,0.0,0,23,2.2E-7,15,129520000000000,0,28.0,-208.70785468816757,0.1,0,0.0,0.0,,,0.5,,0,,1,,
Raw,433225183,1197028720000000000,18,0.0,0,546089.5827694151,333.564095198152,773.2177215619245,0.0,0,22,2.2E-7,3,1000000000,0,30.0,-876.5167014973704,0.1,0,0.0,0.0,,,0.5,,0,,1,,
Raw,433225183,1197028720000000000,18,0.0,0,546089.5827694151,333.564095198152,773.2177215619245,0.0,0,3,2.2E-7,3,7000000000,0,31.0,-771.5224074500147,0.1,0,0.0,0.0,,,0.5,,0,,1,,
NMEA,$GPGGA,115822.00,5559.0020,N,03712.5781,E,1,22,0.573,235.030,M,,M,0,*4B
,1512993502001
NMEA,$GNGSA,A,3,2,3,6,7,9,16,22,23,26,29,31,205,207,209,210,214,69,71,78,79,1.083,0.573,0.920*2B
,1512993502001
NMEA,$GPGSA,A,3,2,3,6,7,9,16,22,23,26,29,31,,,,,,,,,,1.083,0.573,0.920*00
,1512993502001
NMEA,$GLGSA,A,3,69,71,78,79,80,87,,,,,,,,,,,,,,,1.083,0.573,0.920*21
,1512993502001
NMEA,$BDGSA,A,3,205,207,209,210,214,,,,,,,,,,,,,,,,1.083,0.573,0.920*1E
,1512993502001
NMEA,$QZGSA,A,3,,,,,,,,,,,,,,,,,,,,,1.083,0.573,0.920*2E
,1512993502001
NMEA,$GPGSV,8,1,27,2,20,320,18,3,43,148,29,4,5,,27,6,36,284,26*72
,1512993502001
NMEA,$GPGSV,8,2,27,7,14,208,22,9,54,262,22,16,22,111,24,22,22,144,28*7B
,1512993502001
NMEA,$GPGSV,8,3,27,23,87,152,26,26,29,77,23,29,5,14,22,31,13,46,31*7E
,1512993502001
NMEA,$GLGSV,8,4,27,69,33,112,25,70,82,346,21,71,30,300,25,73,7,184,*56
,1512993502001
NMEA,$GLGSV,8,5,27,78,6,22,26,79,43,45,30,80,50,152,23,86,23,289,26*59
,1512993502001
NMEA,$GLGSV,8,6,27,87,18,348,21*54
,1512993502001
NMEA,$BDGSV,8,7,27,202,12,128,,205,21,154,19,207,41,69,19,209,17,101,19*54
,1512993502001
NMEA,$BDGSV,8,8,27,210,48,108,21,214,70,149,21*67
,1512993502001
NMEA,$GPRMC,115822.00,A,5559.0020,N,03712.5781,E,0.000,197.569,111217,,E,A*14
,1512993502001
Fix,gps,55.983367,37.209635,235.029784,0.000000,5.000000,1512993502000
NMEA,$GPGGA,115823.00,5559.0020,N,03712.5781,E,1,21,0.600,235.030,M,,M,0,*4E
,1512993503001
Raw,433226142,1197028721000000000,18,0.0,0,546865.0700146348,333.564095198152,773.542531310777,0.0,0,9,2.2E-7,3,10000000000,0,30.0,162.1025938356761,0.1,0,0.0,0.0,,,0.5,,0,,1,,
Raw,433226143,1197028721000000000,18,0.0,0,546865.0700146348,333.564095198152,773.542531310777,0.0,0,6,2.2E-7,3,6000000000,0,28.0,-263.8599063104484,0.1,0,0.0,0.0,,,0.5,,0,,1,,
Raw,433226143,1197028721000000000,18,0.0,0,546865.0700146348,333.564095198152,773.542531310777,0.0,0,29,2.2E-7,15,129521000000000,0,25.0,43.48286003712565,0.1,0,0.0,0.0,,,0.5,,0,,1,,
Raw,433226143,1197028721000000000,18,0.0,0,546865.0700146348,333.564095198152,773.542531310777,0.0,0,2,2.2E-7,3,19000000000,0,19.0,124.86155287385918,0.1,0,0.0,0.0,,,0.5,,0,,1,,
Raw,433226144,1197028721000000000,18,0.0,0,546865.0700146348,333.564095198152,773.542531310777,0.0,0,16,2.2E-7,15,129521000000000,0,27.0,313.3466199962422,0.1,0,0.0,0.0,,,0.5,,0,,1,,
Raw,433226144,1197028721000000000,18,0.0,0,546865.0700146348,333.564095198152,773.542531310777,0.0,0,26,2.2E-7,3,3000000000,0,30.0,-81.37770898267627,0.1,0,0.0,0.0,,,0.5,,0,,1,,
Raw,433226144,1197028721000000000,18,0.0,0,546865.0700146348,333.564095198152,773.542531310777,0.0,0,31,2.2E-7,3,18000000000,0,31.0,-914.7907536660787,0.1,0,0.0,0.0,,,0.5,,0,,1,,
Raw,433226145,1197028721000000000,18,0.0,0,546865.0700146348,333.564095198152,773.542531310777,0.0,0,4,2.2E-7,15,129521000000000,0,32.0,-273.18880900368094,0.1,0,0.0,0.0,,,0.5,,0,,1,,
Raw,433226145,1197028721000000000,18,0.0,0,546865.0700146348,333.564095198152,773.542531310777,0.0,0,7,2.2E-7,15,129521000000000,0,29.0,456.12368275085464,0.1,0,0.0,0.0,,,0.5,,0,,1,,
Raw,433226146,1197028721000000000,18,0.0,0,546865.0700146348,333.564095198152,773.542531310777,0.0,0,23,2.2E-7,15,129521000000000,0,35.0,-208.7670718911104,0.1,0,0.0,0.0,,,0.5,,0,,1,,
Raw,433226146,1197028721000000000,18,0.0,0,546865.0700146348,333.564095198152,773.542531310777,0.0,0,22,2.2E-7,3,1000000000,0,27.0,-876.7316380117554,0.1,0,0.0,0.0,,,0.5,,0,,1,,
Raw,433226146,1197028721000000000,18,0.0,0,546865.0700146348,333.564095198152,773.542531310777,0.0,0,3,2.2E-7,3,7000000000,0,29.0,-771.8272663836833,0.1,0,0.0,0.0,,,0.5,,0,,1,,
Fix,gps,55.983367,37.209635,235.029784,0.000000,5.000000,1512993503000
NMEA,$GNGSA,A,3,2,3,6,7,9,16,22,23,26,29,31,207,209,210,214,69,71,78,79,80,1.128,0.600,0.955*11
,1512993503001
NMEA,$GPGSA,A,3,2,3,6,7,9,16,22,23,26,29,31,,,,,,,,,,1.128,0.600,0.955*05
,1512993503001
NMEA,$GLGSA,A,3,69,71,78,79,80,87,,,,,,,,,,,,,,,1.128,0.600,0.955*24
,1512993503001
NMEA,$BDGSA,A,3,207,209,210,214,,,,,,,,,,,,,,,,,1.128,0.600,0.955*2C
,1512993503001
NMEA,$QZGSA,A,3,,,,,,,,,,,,,,,,,,,,,1.128,0.600,0.955*2B
,1512993503001
NMEA,$GPGSV,8,1,27,2,20,320,17,3,43,148,27,4,5,,30,6,36,284,26*75
,1512993503001
NMEA,$GPGSV,8,2,27,7,14,208,27,9,54,262,28,16,22,111,25,22,22,144,25*78
,1512993503001
NMEA,$GPGSV,8,3,27,23,87,152,33,26,29,77,28,29,5,14,23,31,13,46,29*79
,1512993503001
NMEA,$GLGSV,8,4,27,69,33,112,23,70,82,346,29,71,30,300,29,73,7,184,*54
,1512993503001
NMEA,$GLGSV,8,5,27,78,6,22,29,79,43,45,30,80,50,152,22,86,23,289,21*50
,1512993503001
NMEA,$GLGSV,8,6,27,87,18,348,16*50
,1512993503001
NMEA,$BDGSV,8,7,27,202,12,128,20,205,21,154,21,207,41,69,27,209,17,101,24*5E
,1512993503001
NMEA,$BDGSV,8,8,27,210,48,108,27,214,70,149,24*64
,1512993503001
NMEA,$GPRMC,115823.00,A,5559.0020,N,03712.5781,E,0.000,197.569,111217,,E,A*15
,1512993503001
Raw,433227139,1197028722000000000,18,0.0,0,547638.6783205349,333.564095198152,772.8635938493688,0.0,0,9,2.2E-7,3,10000000000,0,33.0,162.33726941770874,0.1,0,0.0,0.0,,,0.5,,0,,1,,
Raw,433227140,1197028722000000000,18,0.0,0,547638.6783205349,333.564095198152,772.8635938493688,0.0,0,6,2.2E-7,3,6000000000,0,33.0,-263.9235099728685,0.1,0,0.0,0.0,,,0.5,,0,,1,,
Raw,433227140,1197028722000000000,18,0.0,0,547638.6783205349,333.564095198152,772.8635938493688,0.0,0,29,2.2E-7,15,129522000000000,0,27.0,43.62980642961338,0.1,0,0.0,0.0,,,0.5,,0,,1,,
Raw,433227141,1197028722000000000,18,0.0,0,547638.6783205349,333.564095198152,772.8635938493688,0.0,0,2,2.2E-7,3,19000000000,0,18.0,124.71350986650214,0.1,0,0.0,0.0,,,0.5,,0,,1,,
Raw,433227141,1197028722000000000,18,0.0,0,547638.6783205349,333.564095198152,772.8635938493688,0.0,0,16,2.2E-7,15,129522000000000,0,30.0,313.52317499020137,0.1,0,0.0,0.0,,,0.5,,0,,1,,
Raw,433227141,1197028722000000000,18,0.0,0,547638.6783205349,333.564095198152,772.8635938493688,0.0,0,26,2.2E-7,3,3000000000,0,33.0,-81.43034649640322,0.1,0,0.0,0.0,,,0.5,,0,,1,,
Raw,433227142,1197028722000000000,18,0.0,0,547638.6783205349,333.564095198152,772.8635938493688,0.0,0,31,2.2E-7,3,18000000000,0,29.0,-914.7677247538231,0.1,0,0.0,0.0,,,0.5,,0,,1,,
Raw,433227142,1197028722000000000,18,0.0,0,547638.6783205349,333.564095198152,772.8635938493688,0.0,0,4,2.2E-7,15,129522000000000,0,35.0,-273.3094366393052,0.1,0,0.0,0.0,,,0.5,,0,,1,,
Raw,433227142,1197028722000000000,18,0.0,0,547638.6783205349,333.564095198152,772.8635938493688,0.0,0,7,2.2E-7,15,129522000000000,0,30.0,456.39235339383595,0.1,0,0.0,0.0,,,0.5,,0,,1,,
Raw,433227143,1197028722000000000,18,0.0,0,547638.6783205349,333.564095198152,772.8635938493688,0.0,0,23,2.2E-7,15,129522000000000,0,36.0,-208.57187444437295,0.1,0,0.0,0.0,,,0.5,,0,,1,,
Raw,433227143,1197028722000000000,18,0.0,0,547638.6783205349,333.564095198152,772.8635938493688,0.0,0,22,2.2E-7,3,1000000000,0,27.0,-876.8445893432945,0.1,0,0.0,0.0,,,0.5,,0,,1,,
Raw,433227143,1197028722000000000,18,0.0,0,547638.6783205349,333.564095198152,772.8635938493688,0.0,0,3,2.2E-7,3,7000000000,0,31.0,-771.7866916335188,0.1,0,0.0,0.0,,,0.5,,0,,1,,
Fix,gps,55.983367,37.209635,235.029784,0.000000,5.000000,1512993504000
NMEA,$GPGGA,115824.00,5559.0020,N,03712.5781,E,1,21,0.600,235.030,M,,M,0,*49
,1512993504000
NMEA,$GNGSA,A,3,2,3,6,7,9,16,22,23,26,29,31,207,209,210,214,69,71,78,79,80,1.128,0.600,0.955*11
,1512993504000
NMEA,$GPGSA,A,3,2,3,6,7,9,16,22,23,26,29,31,,,,,,,,,,1.128,0.600,0.955*05
,1512993504000
NMEA,$GLGSA,A,3,69,71,78,79,80,87,,,,,,,,,,,,,,,1.128,0.600,0.955*24
,1512993504000
NMEA,$BDGSA,A,3,207,209,210,214,,,,,,,,,,,,,,,,,1.128,0.600,0.955*2C
,1512993504000
NMEA,$QZGSA,A,3,,,,,,,,,,,,,,,,,,,,,1.128,0.600,0.955*2B
,1512993504000
NMEA,$GPGSV,8,1,27,2,20,320,16,3,43,148,29,4,5,,33,6,36,284,31*7F
,1512993504000
NMEA,$GPGSV,8,2,27,7,14,208,28,9,54,262,31,16,22,111,28,22,22,144,25*72
,1512993504000
NMEA,$GPGSV,8,3,27,23,87,152,34,26,29,77,31,29,5,14,25,31,13,46,27*7E
,1512993504000
NMEA,$GLGSV,8,4,27,69,33,112,21,70,82,346,27,71,30,300,21,73,7,184,*50
,1512993504000
NMEA,$GLGSV,8,5,27,78,6,22,25,79,43,45,22,80,50,152,22,86,23,289,21*5F
,1512993504000
NMEA,$GLGSV,8,6,27,87,18,348,18*5E
,1512993504000
NMEA,$BDGSV,8,7,27,202,12,128,11,205,21,154,21,207,41,69,24,209,17,101,28*53
,1512993504000
NMEA,$BDGSV,8,8,27,210,48,108,27,214,70,149,21*61
,1512993504000
NMEA,$GPRMC,115824.00,A,5559.0020,N,03712.5781,E,0.000,197.569,111217,,E,A*12
,1512993504000
Raw,433228158,1197028723000000000,18,0.0,0,548409.3387898025,333.564095198152,773.3894380636635,0.0,0,9,2.2E-7,3,10000000000,0,33.0,162.13549228175543,0.1,0,0.0,0.0,,,0.5,,0,,1,,
Raw,433228159,1197028723000000000,18,0.0,0,548409.3387898025,333.564095198152,773.3894380636635,0.0,0,6,2.2E-7,3,6000000000,0,33.0,-264.4531749547459,0.1,0,0.0,0.0,,,0.5,,0,,1,,
Raw,433228159,1197028723000000000,18,0.0,0,548409.3387898025,333.564095198152,773.3894380636635,0.0,0,29,2.2E-7,3,16000000000,0,28.0,43.2196724684909,0.1,0,0.0,0.0,,,0.5,,0,,1,,
Raw,433228159,1197028723000000000,18,0.0,0,548409.3387898025,333.564095198152,773.3894380636635,0.0,0,2,2.2E-7,3,19000000000,0,18.0,123.67391897039488,0.1,0,0.0,0.0,,,0.5,,0,,1,,
Raw,433228160,1197028723000000000,18,0.0,0,548409.3387898025,333.564095198152,773.3894380636635,0.0,0,16,2.2E-7,15,129523000000000,0,31.0,313.3356538475491,0.1,0,0.0,0.0,,,0.5,,0,,1,,
Raw,433228160,1197028723000000000,18,0.0,0,548409.3387898025,333.564095198152,773.3894380636635,0.0,0,26,2.2E-7,3,3000000000,0,32.0,-81.87776536308229,0.1,0,0.0,0.0,,,0.5,,0,,1,,
Raw,433228161,1197028723000000000,18,0.0,0,548409.3387898025,333.564095198152,773.3894380636635,0.0,0,31,2.2E-7,3,18000000000,0,31.0,-915.0078834102023,0.1,0,0.0,0.0,,,0.5,,0,,1,,
Raw,433228161,1197028723000000000,18,0.0,0,548409.3387898025,333.564095198152,773.3894380636635,0.0,0,4,2.2E-7,3,3000000000,0,35.0,-273.67570600565523,0.1,0,0.0,0.0,,,0.5,,0,,1,,
Raw,433228162,1197028723000000000,18,0.0,0,548409.3387898025,333.564095198152,773.3894380636635,0.0,0,7,2.2E-7,3,18000000000,0,28.0,455.62801282992586,0.1,0,0.0,0.0,,,0.5,,0,,1,,
Raw,433228162,1197028723000000000,18,0.0,0,548409.3387898025,333.564095198152,773.3894380636635,0.0,0,23,2.2E-7,3,11000000000,0,37.0,-208.86686384421773,0.1,0,0.0,0.0,,,0.5,,0,,1,,
Raw,433228162,1197028723000000000,18,0.0,0,548409.3387898025,333.564095198152,773.3894380636635,0.0,0,22,2.2E-7,3,1000000000,0,27.0,-877.3424524939619,0.1,0,0.0,0.0,,,0.5,,0,,1,,
Raw,433228163,1197028723000000000,18,0.0,0,548409.3387898025,333.564095198152,773.3894380636635,0.0,0,3,2.2E-7,3,7000000000,0,30.0,-771.8108171606436,0.1,0,0.0,0.0,,,0.5,,0,,1,,
Fix,gps,55.983367,37.209635,235.029784,0.000000,5.000000,1512993505000
NMEA,$GPGGA,115825.00,5559.0020,N,03712.5781,E,1,22,0.573,235.030,M,,M,0,*4C
,1512993505001
NMEA,$GNGSA,A,3,2,3,6,7,9,16,22,23,26,29,31,205,207,209,210,214,69,71,78,79,1.083,0.573,0.920*2B
,1512993505001
NMEA,$GPGSA,A,3,2,3,6,7,9,16,22,23,26,29,31,,,,,,,,,,1.083,0.573,0.920*00
,1512993505001
NMEA,$GLGSA,A,3,69,71,78,79,80,87,,,,,,,,,,,,,,,1.083,0.573,0.920*21
,1512993505001
NMEA,$BDGSA,A,3,205,207,209,210,214,,,,,,,,,,,,,,,,1.083,0.573,0.920*1E
,1512993505001
NMEA,$QZGSA,A,3,,,,,,,,,,,,,,,,,,,,,1.083,0.573,0.920*2E
,1512993505001
NMEA,$GPGSV,8,1,27,2,20,320,16,3,43,148,28,4,5,,33,6,36,284,31*7E
,1512993505001
NMEA,$GPGSV,8,2,27,7,14,208,26,9,54,262,31,16,22,111,29,22,22,144,25*7D
,1512993505001
NMEA,$GPGSV,8,3,27,23,87,152,35,26,29,77,30,29,5,14,26,31,13,46,29*73
,1512993505001
NMEA,$GLGSV,8,4,27,69,33,112,22,70,82,346,28,71,30,300,20,73,7,184,*5D
,1512993505001
NMEA,$GLGSV,8,5,27,78,6,22,25,79,43,45,26,80,50,152,19,86,23,289,26*54
,1512993505001
NMEA,$GLGSV,8,6,27,87,18,348,17*51
,1512993505001
NMEA,$BDGSV,8,7,27,202,12,128,8,205,21,154,19,207,41,69,25,209,17,101,29*60
,1512993505001
NMEA,$BDGSV,8,8,27,210,48,108,24,214,70,149,21*62
,1512993505001
NMEA,$GPRMC,115825.00,A,5559.0020,N,03712.5781,E,0.000,197.569,111217,,E,A*13
,1512993505001
NMEA,$GPGGA,115826.00,5559.0020,N,03712.5781,E,1,22,0.573,235.030,M,,M,0,*4F
,1512993506000
Fix,gps,55.983367,37.209635,235.029784,0.000000,5.000000,1512993506000
Raw,433229142,1197028724000000000,18,0.0,0,549183.2321865967,333.564095198152,775.1905572666377,0.0,0,9,2.2E-7,3,10000000000,0,30.0,161.7209718611557,0.1,0,0.0,0.0,,,0.5,,0,,1,,
