# 
# Header Description:
# 
# Version: v2.0.0.1 Platform: 7.1.2 Manufacturer: Xiaomi Model: Redmi 3S
# 
# Raw,ElapsedRealtimeMillis,TimeNanos,LeapSecond,TimeUncertaintyNanos,FullBiasNanos,BiasNanos,BiasUncertaintyNanos,DriftNanosPerSecond,DriftUncertaintyNanosPerSecond,HardwareClockDiscontinuityCount,Svid,TimeOffsetNanos,State,ReceivedSvTimeNanos,ReceivedSvTimeUncertaintyNanos,Cn0DbHz,PseudorangeRateMetersPerSecond,PseudorangeRateUncertaintyMetersPerSecond,AccumulatedDeltaRangeState,AccumulatedDeltaRangeMeters,AccumulatedDeltaRangeUncertaintyMeters,CarrierFrequencyHz,CarrierCycles,CarrierPhase,CarrierPhaseUncertainty,MultipathIndicator,SnrInDb,ConstellationType,AgcDb,CarrierFrequencyHz
# 
# Fix,Provider,Latitude,Longitude,Altitude,Speed,Accuracy,(UTC)TimeInMs
# 
# Nav,Svid,Type,Status,MessageId,Sub-messageId,Data(Bytes)
# 
Fix,gps,55.983456,37.209660,237.000000,0.000000,9.101999,1512993366000
NMEA,$GPGSV,3,1,11,02,18,320,22,03,43,147,33,06,35,285,32,07,12,206,30*7A
,1512993366756
NMEA,$GPGSV,3,2,11,09,52,261,36,16,20,111,29,22,22,143,26,23,86,175,33*77
,1512993366757
NMEA,$GPGSV,3,3,11,26,28,077,35,29,04,014,29,31,13,045,31*43
,1512993366757
NMEA,$GLGSV,3,1,09,14,07,021,26,06,80,338,28,22,23,289,24,16,49,153,25*69
,1512993366757
NMEA,$GLGSV,3,2,09,15,44,046,32,23,18,348,22,07,28,299,21,09,05,184,*60
,1512993366757
NMEA,$GLGSV,3,3,09,21,02,241,*5A
,1512993366757
NMEA,$GPGSA,A,3,03,06,07,09,16,22,23,26,29,31,,,1.0,0.6,0.7*32
,1512993366758
NMEA,$GNGSA,A,3,70,71,78,80,86,87,,,,,,,1.0,0.6,0.7*2B
,1512993366758
NMEA,$GPVTG,,T,,M,0.0,N,0.0,K,D*26
,1512993366758
NMEA,$GPRMC,115606.00,A,5559.007351,N,03712.579585,E,0.0,,111217,8.8,E,D*16
,1512993366758
NMEA,$GPGGA,115606.00,5559.007351,N,03712.579585,E,2,10,0.6,221.0,M,16.0,M,,*63
,1512993366759
Fix,gps,55.983452,37.209662,236.000000,0.000000,7.585000,1512993367000
NMEA,$GPGSV,3,1,11,02,18,320,23,03,43,147,30,06,35,285,34,07,12,206,28*77
,1512993367757
NMEA,$GPGSV,3,2,11,09,52,261,37,16,20,111,31,22,22,143,28,23,86,175,35*77
,1512993367757
NMEA,$GPGSV,3,3,11,26,28,077,35,29,04,014,31,31,13,045,33*48
,1512993367757
NMEA,$GLGSV,3,1,10,14,07,021,29,06,80,338,31,22,23,289,25,16,49,153,24*66
,1512993367757
NMEA,$GLGSV,3,2,10,15,44,046,33,05,33,111,25,23,18,348,25,07,28,299,28*65
,1512993367757
NMEA,$GLGSV,3,3,10,09,05,184,,21,02,241,*63
,1512993367757
NMEA,$GPGSA,A,3,02,03,06,07,09,16,22,23,26,29,31,,1.0,0.6,0.7*30
,1512993367758
NMEA,$GNGSA,A,3,70,71,78,80,86,87,,,,,,,1.0,0.6,0.7*2B
,1512993367758
NMEA,$GPVTG,,T,,M,0.0,N,0.0,K,D*26
,1512993367759
NMEA,$GPRMC,115607.00,A,5559.007124,N,03712.579733,E,0.0,,111217,8.8,E,D*18
,1512993367759
NMEA,$GPGGA,115607.00,5559.007124,N,03712.579733,E,2,11,0.6,220.0,M,16.0,M,,*6D
,1512993367759
Fix,gps,55.983450,37.209664,236.000000,0.000000,7.585000,1512993368000
NMEA,$GPGSV,3,1,11,02,18,320,24,03,43,147,33,06,35,285,34,07,12,206,29*72
,1512993368756
NMEA,$GPGSV,3,2,11,09,52,261,38,16,20,111,29,22,22,143,26,23,86,175,35*7F
,1512993368756
NMEA,$GPGSV,3,3,11,26,28,077,35,29,04,014,33,31,13,045,34*4D
,1512993368756
NMEA,$GLGSV,3,1,10,14,07,021,31,06,80,338,31,22,23,289,25,16,49,153,26*6D
,1512993368756
NMEA,$GLGSV,3,2,10,15,44,046,34,05,33,111,29,23,18,348,27,07,28,299,28*6C
,1512993368757
NMEA,$GLGSV,3,3,10,09,05,184,,21,02,241,*63
,1512993368757
NMEA,$GPGSA,A,3,02,03,06,07,09,16,22,23,26,29,31,,1.0,0.6,0.7*30
,1512993368762
NMEA,$GNGSA,A,3,70,71,78,80,86,87,,,,,,,1.0,0.6,0.7*2B
,1512993368762
NMEA,$GPVTG,,T,,M,0.0,N,0.0,K,D*26
,1512993368762
NMEA,$GPRMC,115608.00,A,5559.006994,N,03712.579859,E,0.0,,111217,8.8,E,D*16
,1512993368762
NMEA,$GPGGA,115608.00,5559.006994,N,03712.579859,E,2,11,0.6,220.0,M,16.0,M,,*63
,1512993368762
NMEA,$GPGSV,3,1,12,02,18,320,25,03,43,147,35,04,00,000,33,06,35,285,34*79
,1512993369758
NMEA,$GPGSV,3,2,12,07,12,206,31,09,52,261,37,16,20,111,26,22,22,143,28*7A
,1512993369758
NMEA,$GPGSV,3,3,12,23,86,175,34,26,28,077,36,29,04,014,32,31,13,045,34*77
,1512993369758
NMEA,$GLGSV,3,1,10,14,07,021,25,06,80,338,31,22,23,289,28,16,49,153,29*6A
,1512993369758
NMEA,$GLGSV,3,2,10,15,44,046,33,05,33,111,30,23,18,348,23,07,28,299,28*67
,1512993369758
NMEA,$GLGSV,3,3,10,09,05,184,,21,02,241,*63
,1512993369758
Fix,gps,55.983445,37.209662,234.000000,0.000000,6.068000,1512993369000
NMEA,$GPGSA,A,3,02,03,06,07,09,16,22,23,26,29,31,,1.0,0.6,0.7*30
,1512993369762
NMEA,$GNGSA,A,3,70,71,78,80,86,87,,,,,,,1.0,0.6,0.7*2B
,1512993369762
NMEA,$GPVTG,,T,,M,0.0,N,0.0,K,D*26
,1512993369762
NMEA,$GPRMC,115609.00,A,5559.006684,N,03712.579739,E,0.0,,111217,8.8,E,D*10
,1512993369762
NMEA,$GPGGA,115609.00,5559.006684,N,03712.579739,E,2,11,0.6,218.0,M,16.0,M,,*6E
,1512993369762
Fix,gps,55.983438,37.209658,226.000000,0.000000,6.068000,1512993370000
NMEA,$GPGSV,3,1,12,02,18,320,25,03,43,147,35,04,00,000,33,06,35,285,34*79
,1512993370763
NMEA,$GPGSV,3,2,12,07,12,206,32,09,52,261,36,16,20,111,29,22,22,143,27*78
,1512993370764
NMEA,$GPGSV,3,3,12,23,86,175,36,26,28,077,36,29,04,014,31,31,13,045,31*73
,1512993370764
NMEA,$GLGSV,3,1,10,14,07,021,23,06,80,338,30,22,23,289,29,16,49,153,29*6C
,1512993370764
NMEA,$GLGSV,3,2,10,15,44,046,34,05,33,111,31,23,18,348,23,07,28,299,24*6D
,1512993370764
NMEA,$GLGSV,3,3,10,09,05,184,,21,02,241,*63
,1512993370764
NMEA,$GPGSA,A,3,02,03,06,07,09,16,22,23,26,29,31,,1.0,0.6,0.7*30
,1512993370765
NMEA,$GNGSA,A,3,70,71,78,80,86,87,,,,,,,1.0,0.6,0.7*2B
,1512993370765
NMEA,$GPVTG,,T,,M,0.0,N,0.0,K,D*26
,1512993370765
NMEA,$GPRMC,115610.00,A,5559.006309,N,03712.579502,E,0.0,,111217,8.8,E,D*12
,1512993370766
NMEA,$GPGGA,115610.00,5559.006309,N,03712.579502,E,2,11,0.6,210.0,M,16.0,M,,*64
,1512993370766
Fix,gps,55.983432,37.209654,226.000000,0.000000,4.551000,1512993371000
NMEA,$GPGSV,3,1,12,02,18,320,25,03,43,147,36,04,00,000,34,06,35,285,33*7A
,1512993371759
NMEA,$GPGSV,3,2,12,07,12,206,33,09,52,261,36,16,20,111,29,22,22,143,22*7C
,1512993371760
NMEA,$GPGSV,3,3,12,23,86,175,37,26,28,077,35,29,04,014,29,31,13,045,30*79
,1512993371760
NMEA,$GLGSV,3,1,10,14,07,021,25,06,80,338,30,22,23,289,27,16,49,153,29*64
,1512993371760
NMEA,$GLGSV,3,2,10,15,44,046,33,05,33,111,30,23,18,348,23,07,28,299,28*67
,1512993371760
NMEA,$GLGSV,3,3,10,09,05,184,,21,02,241,*63
,1512993371760
NMEA,$GPGSA,A,3,02,03,06,07,09,16,22,23,26,29,31,,1.0,0.6,0.7*30
,1512993371766
NMEA,$GNGSA,A,3,70,71,78,80,86,87,,,,,,,1.0,0.6,0.7*2B
,1512993371766
NMEA,$GPVTG,,T,,M,0.0,N,0.0,K,D*26
,1512993371766
NMEA,$GPRMC,115611.00,A,5559.005931,N,03712.579223,E,0.0,,111217,8.8,E,D*15
,1512993371766
NMEA,$GPGGA,115611.00,5559.005931,N,03712.579223,E,2,11,0.6,210.0,M,16.0,M,,*63
,1512993371766
Fix,gps,55.983428,37.209650,227.000000,0.000000,4.551000,1512993372000
NMEA,$GPGSV,3,1,12,02,18,320,23,03,43,147,36,04,00,000,34,06,35,285,32*7D
,1512993372756
NMEA,$GPGSV,3,2,12,07,12,206,33,09,52,261,32,16,20,111,24,22,22,143,22*75
,1512993372756
NMEA,$GPGSV,3,3,12,23,86,175,36,26,28,077,33,29,04,014,28,31,13,045,29*77
,1512993372756
NMEA,$GLGSV,3,1,10,14,07,021,26,06,80,338,30,22,23,289,28,16,49,153,30*60
,1512993372756
NMEA,$GLGSV,3,2,10,15,44,046,34,05,33,111,28,23,18,348,16,07,28,299,26*61
,1512993372757
NMEA,$GLGSV,3,3,10,09,05,184,,21,02,241,*63
,1512993372757
NMEA,$GPGSA,A,3,02,03,06,07,09,16,22,23,26,29,31,,1.0,0.6,0.7*30
,1512993372759
NMEA,$GNGSA,A,3,70,71,78,80,86,87,,,,,,,1.0,0.6,0.7*2B
,1512993372760
NMEA,$GPVTG,,T,,M,0.0,N,0.0,K,D*26
,1512993372760
NMEA,$GPRMC,115612.00,A,5559.005668,N,03712.578975,E,0.0,,111217,8.8,E,D*1C
,1512993372760
NMEA,$GPGGA,115612.00,5559.005668,N,03712.578975,E,2,11,0.6,211.0,M,16.0,M,,*6B
,1512993372760
Fix,gps,55.983425,37.209647,228.000000,0.000000,4.551000,1512993373000
NMEA,$GPGSV,3,1,12,02,18,320,23,03,43,147,35,04,00,000,34,06,35,285,32*7E
,1512993373760
NMEA,$GPGSV,3,2,12,07,12,206,33,09,52,261,33,16,20,111,27,22,22,143,24*71
,1512993373760
NMEA,$GPGSV,3,3,12,23,86,175,37,26,28,077,33,29,04,014,29,31,13,045,30*7F
,1512993373760
NMEA,$GLGSV,3,1,10,14,07,021,25,06,80,338,29,22,23,289,25,09,05,184,13*6B
,1512993373760
NMEA,$GLGSV,3,2,10,16,49,153,28,15,44,046,33,05,33,111,29,23,18,348,16*6B
,1512993373761
NMEA,$GLGSV,3,3,10,07,28,299,28,21,02,241,*67
,1512993373761
NMEA,$GPGSA,A,3,02,03,06,07,09,16,22,23,26,29,31,,1.0,0.6,0.7*30
,1512993373766
NMEA,$GNGSA,A,3,70,71,78,80,86,87,,,,,,,1.0,0.6,0.7*2B
,1512993373766
NMEA,$GPVTG,,T,,M,0.0,N,0.0,K,D*26
,1512993373766
NMEA,$GPRMC,115613.00,A,5559.005507,N,03712.578812,E,0.0,,111217,8.8,E,D*17
,1512993373766
NMEA,$GPGGA,115613.00,5559.005507,N,03712.578812,E,2,11,0.6,212.0,M,16.0,M,,*63
,1512993373766
Fix,gps,55.983423,37.209645,228.000000,0.000000,4.551000,1512993374000
NMEA,$GPGSV,3,1,12,02,18,320,24,03,43,147,36,04,00,000,35,06,35,285,31*78
,1512993374757
NMEA,$GPGSV,3,2,12,07,12,206,32,09,52,261,32,16,20,111,24,22,22,143,28*7E
,1512993374757
NMEA,$GPGSV,3,3,12,23,86,175,37,26,28,077,34,29,04,014,30,31,13,045,31*71
,1512993374758
NMEA,$GLGSV,3,1,10,14,07,021,29,06,80,338,30,22,23,289,28,09,05,184,14*65
,1512993374758
NMEA,$GLGSV,3,2,10,16,49,153,30,15,44,046,34,05,33,111,30,23,18,348,16*6D
,1512993374758
NMEA,$GLGSV,3,3,10,07,28,299,28,21,02,241,*67
,1512993374758
NMEA,$GPGSA,A,3,02,03,06,07,09,16,22,23,26,29,31,,1.0,0.6,0.7*30
,1512993374760
NMEA,$GNGSA,A,3,70,71,78,80,86,87,,,,,,,1.0,0.6,0.7*2B
,1512993374760
NMEA,$GPVTG,,T,,M,0.0,N,0.0,K,D*26
,1512993374760
NMEA,$GPRMC,115614.00,A,5559.005396,N,03712.578698,E,0.0,,111217,8.8,E,D*12
,1512993374760
NMEA,$GPGGA,115614.00,5559.005396,N,03712.578698,E,2,11,0.6,212.0,M,16.0,M,,*66
,1512993374760
Fix,gps,55.983422,37.209644,228.000000,0.000000,4.551000,1512993375000
NMEA,$GPGSV,3,1,12,02,18,320,23,03,43,147,36,04,00,000,34,06,35,285,31*7E
,1512993375759
NMEA,$GPGSV,3,2,12,07,12,206,32,09,52,261,31,16,20,111,25,22,22,143,29*7D
,1512993375759
NMEA,$GPGSV,3,3,12,23,86,175,37,26,28,077,33,29,04,014,31,31,13,045,31*77
,1512993375759
NMEA,$GLGSV,3,1,10,14,07,021,29,06,80,338,28,22,23,289,26,09,05,184,14*62
,1512993375759
NMEA,$GLGSV,3,2,10,16,49,153,30,15,44,046,33,05,33,111,29,23,18,348,14*60
,1512993375759
NMEA,$GLGSV,3,3,10,07,28,299,28,21,02,241,*67
,1512993375759
NMEA,$GPGSA,A,3,02,03,06,07,09,16,22,23,26,29,31,,1.0,0.6,0.7*30
,1512993375762
NMEA,$GNGSA,A,3,70,71,78,80,86,87,,,,,,,1.0,0.6,0.7*2B
,1512993375762
NMEA,$GPVTG,,T,,M,0.0,N,0.0,K,D*26
,1512993375762
NMEA,$GPRMC,115615.00,A,5559.005320,N,03712.578626,E,0.0,,111217,8.8,E,D*1B
,1512993375762
NMEA,$GPGGA,115615.00,5559.005320,N,03712.578626,E,2,11,0.6,212.0,M,16.0,M,,*6F
,1512993375762
Fix,gps,55.983421,37.209643,228.000000,0.000000,4.551000,1512993376000
NMEA,$GPGSV,3,1,12,02,18,320,23,03,43,147,36,04,00,000,34,06,35,285,31*7E
,1512993376759
NMEA,$GPGSV,3,2,12,07,12,206,30,09,52,261,32,16,20,111,24,22,22,143,31*74
,1512993376760
NMEA,$GPGSV,3,3,12,23,86,175,37,26,28,077,33,29,04,014,33,31,13,045,31*75
,1512993376760
NMEA,$GLGSV,3,1,10,14,07,021,29,06,80,338,28,22,23,289,27,09,05,184,17*60
,1512993376760
NMEA,$GLGSV,3,2,10,16,49,153,31,15,44,046,33,05,33,111,28,23,18,348,14*60
,1512993376760
NMEA,$GLGSV,3,3,10,07,28,299,28,21,02,241,*67
,1512993376760
NMEA,$GPGSA,A,3,02,03,06,07,09,16,22,23,26,29,31,,1.0,0.6,0.7*30
,1512993376771
NMEA,$GNGSA,A,3,70,71,78,80,86,,,,,,,,1.0,0.6,0.7*24
,1512993376771
NMEA,$GPVTG,,T,,M,0.0,N,0.0,K,D*26
,1512993376771
NMEA,$GPRMC,115616.00,A,5559.005279,N,03712.578585,E,0.0,,111217,8.8,E,D*1F
,1512993376772
NMEA,$GPGGA,115616.00,5559.005279,N,03712.578585,E,2,11,0.6,212.0,M,16.0,M,,*6B
,1512993376772
Fix,gps,55.983421,37.209643,229.000000,0.000000,4.551000,1512993377000
NMEA,$GPGSV,3,1,11,02,18,320,23,03,43,147,33,04,00,000,35,06,35,285,29*70
,1512993377769
NMEA,$GPGSV,3,2,11,09,52,261,29,16,20,111,30,22,22,143,30,23,86,175,37*72
,1512993377769
NMEA,$GPGSV,3,3,11,26,28,077,31,29,04,014,35,31,13,045,27*4D
,1512993377770
NMEA,$GLGSV,3,1,10,14,07,021,38,06,80,338,28,22,23,289,29,09,05,184,17*6E
,1512993377770
NMEA,$GLGSV,3,2,10,16,49,153,28,15,44,046,34,05,33,111,33,23,18,348,14*65
,1512993377770
NMEA,$GLGSV,3,3,10,07,28,299,33,21,02,241,*6D
,1512993377770
NMEA,$GPGSA,A,3,02,03,06,09,16,22,23,26,29,31,,,1.0,0.6,0.7*37
,1512993377771
NMEA,$GNGSA,A,3,70,71,78,80,86,,,,,,,,1.0,0.6,0.7*24
,1512993377771
NMEA,$GPVTG,,T,,M,0.0,N,0.0,K,D*26
,1512993377771
NMEA,$GPRMC,115617.00,A,5559.005259,N,03712.578562,E,0.0,,111217,8.8,E,D*15
,1512993377771
NMEA,$GPGGA,115617.00,5559.005259,N,03712.578562,E,2,10,0.6,213.0,M,16.0,M,,*61
,1512993377772
Fix,gps,55.983421,37.209642,229.000000,0.000000,4.551000,1512993378000
NMEA,$GPGSV,3,1,12,03,43,147,33,04,00,000,35,06,35,285,32,07,12,206,29*79
,1512993378763
NMEA,$GPGSV,3,2,12,09,52,261,30,16,20,111,27,22,22,143,28,23,86,175,38*79
,1512993378763
NMEA,$GPGSV,3,3,12,26,28,077,29,29,04,014,35,31,13,045,30,02,18,320,*7B
,1512993378763
NMEA,$GLGSV,3,1,10,14,07,021,38,06,80,338,29,22,23,289,29,16,49,153,29*6E
,1512993378764
NMEA,$GLGSV,3,2,10,15,44,046,32,05,33,111,30,07,28,299,33,09,05,184,*6B
,1512993378764
NMEA,$GLGSV,3,3,10,23,18,348,,21,02,241,*65
,1512993378764
NMEA,$GPGSA,A,3,02,03,06,07,09,16,22,23,26,29,31,,1.0,0.6,0.7*30
,1512993378768
NMEA,$GNGSA,A,3,70,71,78,80,86,,,,,,,,1.0,0.6,0.7*24
,1512993378768
NMEA,$GPVTG,,T,,M,0.0,N,0.0,K,D*26
,1512993378768
NMEA,$GPRMC,115618.00,A,5559.005249,N,03712.578548,E,0.0,,111217,8.8,E,D*13
,1512993378768
NMEA,$GPGGA,115618.00,5559.005249,N,03712.578548,E,2,11,0.6,213.0,M,16.0,M,,*66
,1512993378769
Fix,gps,55.983421,37.209642,229.000000,0.000000,4.551000,1512993379000
NMEA,$GPGSV,3,1,12,02,18,320,25,03,43,147,36,04,00,000,27,06,35,285,33*78
,1512993379756
NMEA,$GPGSV,3,2,12,07,12,206,33,09,52,261,35,16,20,111,34,22,22,143,25*74
,1512993379756
NMEA,$GPGSV,3,3,12,23,86,175,38,26,28,077,34,29,04,014,26,31,13,045,30*78
,1512993379756
NMEA,$GLGSV,3,1,09,14,07,021,29,06,80,338,31,16,49,153,25,15,44,046,33*6C
,1512993379756
NMEA,$GLGSV,3,2,09,05,33,111,29,23,18,348,24,07,28,299,23,09,05,184,*6C
,1512993379756
NMEA,$GLGSV,3,3,09,21,02,241,*5A
,1512993379756
NMEA,$GPGSA,A,3,02,03,06,07,09,16,22,23,26,29,31,,1.0,0.6,0.7*30
,1512993379758
NMEA,$GNGSA,A,3,70,71,78,80,,,,,,,,,1.0,0.6,0.7*2A
,1512993379758
NMEA,$GPVTG,,T,,M,0.0,N,0.0,K,D*26
,1512993379758
NMEA,$GPRMC,115619.00,A,5559.005246,N,03712.578542,E,0.0,,111217,8.8,E,D*17
,1512993379758
NMEA,$GPGGA,115619.00,5559.005246,N,03712.578542,E,2,11,0.6,213.0,M,16.0,M,,*62
,1512993379759
Fix,gps,55.983421,37.209642,229.000000,0.000000,4.551000,1512993380000
NMEA,$GPGSV,3,1,11,02,18,320,23,03,43,147,31,04,00,000,28,06,35,285,31*77
,1512993380758
NMEA,$GPGSV,3,2,11,07,12,206,30,09,52,261,38,16,20,111,29,23,86,175,35*7E
,1512993380759
NMEA,$GPGSV,3,3,11,26,28,077,33,29,04,014,33,31,13,045,29*47
,1512993380759
NMEA,$GLGSV,3,1,09,14,07,021,34,06,80,338,28,22,23,289,24,16,49,153,25*6A
,1512993380759
NMEA,$GLGSV,3,2,09,15,44,046,28,05,33,111,24,07,28,299,23,09,05,184,*6C
,1512993380759
NMEA,$GLGSV,3,3,09,21,02,241,*5A
,1512993380759
NMEA,$GPGSA,A,3,02,03,06,07,09,16,23,26,29,31,,,1.0,0.6,0.7*30
,1512993380761
NMEA,$GNGSA,A,3,70,71,78,80,86,,,,,,,,1.0,0.6,0.7*24
,1512993380762
NMEA,$GPVTG,,T,,M,0.0,N,0.0,K,D*26
,1512993380762
NMEA,$GPRMC,115620.00,A,5559.005243,N,03712.578539,E,0.0,,111217,8.8,E,D*14
,1512993380762
NMEA,$GPGGA,115620.00,5559.005243,N,03712.578539,E,2,10,0.6,213.0,M,16.0,M,,*60
,1512993380762
Fix,gps,55.983421,37.209642,226.000000,0.000000,4.551000,1512993381000
NMEA,$GPGSV,3,1,11,03,43,147,28,04,00,000,29,06,35,285,30,07,12,206,29*7F
,1512993381760
NMEA,$GPGSV,3,2,11,09,52,261,37,16,20,111,22,22,22,143,25,23,86,175,34*79
,1512993381761
NMEA,$GPGSV,3,3,11,26,28,077,35,29,04,014,24,31,13,045,26*48
,1512993381761
NMEA,$GLGSV,3,1,09,14,07,021,26,06,80,338,26,22,23,289,23,15,44,046,26*68
,1512993381761
NMEA,$GLGSV,3,2,09,05,33,111,30,07,28,299,31,09,05,184,,23,18,348,*61
,1512993381761
NMEA,$GLGSV,3,3,09,21,02,241,*5A
,1512993381761
NMEA,$GPGSA,A,3,03,06,07,09,16,22,23,26,29,31,,,1.0,0.6,0.7*32
,1512993381763
NMEA,$GNGSA,A,3,70,71,78,86,87,,,,,,,,1.0,0.6,0.7*23
,1512993381763
NMEA,$GPVTG,,T,,M,0.0,N,0.0,K,D*26
,1512993381763
NMEA,$GPRMC,115621.00,A,5559.005242,N,03712.578537,E,0.0,,111217,8.8,E,D*1A
,1512993381764
NMEA,$GPGGA,115621.00,5559.005242,N,03712.578537,E,2,10,0.6,210.0,M,16.0,M,,*6D
,1512993381764
Fix,gps,55.983421,37.209642,227.000000,0.000000,4.551000,1512993382000
NMEA,$GPGSV,3,1,11,03,43,147,28,04,00,000,28,06,35,285,33,07,12,206,26*72
,1512993382814
NMEA,$GPGSV,3,2,11,09,52,261,37,16,20,111,32,22,22,143,26,23,86,175,31*7E
,1512993382815
NMEA,$GPGSV,3,3,11,26,28,077,33,29,04,014,22,31,13,045,27*49
,1512993382815
NMEA,$GLGSV,3,1,10,14,07,021,27,06,80,338,23,22,23,289,25,16,49,153,22*6D
,1512993382815
NMEA,$GLGSV,3,2,10,15,44,046,26,05,33,111,24,07,28,299,33,09,05,184,*6B
,1512993382815
NMEA,$GLGSV,3,3,10,23,18,348,,21,02,241,*65
,1512993382815
NMEA,$GPGSA,A,3,03,06,07,09,16,22,23,26,29,31,,,1.0,0.6,0.7*32
,1512993382816
NMEA,$GNGSA,A,3,70,71,78,80,86,87,,,,,,,1.0,0.6,0.7*2B
,1512993382817
NMEA,$GPVTG,,T,,M,0.0,N,0.0,K,D*26
,1512993382817
NMEA,$GPRMC,115622.00,A,5559.005241,N,03712.578536,E,0.0,,111217,8.8,E,D*1B
,1512993382817
NMEA,$GPGGA,115622.00,5559.005241,N,03712.578536,E,2,10,0.6,211.0,M,16.0,M,,*6D
,1512993382817
Fix,gps,55.983421,37.209642,228.000000,0.000000,4.551000,1512993383000
NMEA,$GPGSV,3,1,11,03,43,147,24,04,00,000,30,06,35,285,32,07,12,206,25*75
,1512993383780
NMEA,$GPGSV,3,2,11,09,52,261,38,16,20,111,32,22,22,143,26,23,86,175,28*79
,1512993383780
NMEA,$GPGSV,3,3,11,26,28,077,29,29,04,014,23,31,13,045,28*4C
,1512993383780
NMEA,$GLGSV,3,1,10,14,07,021,28,06,80,338,23,22,23,289,27,16,49,153,22*60
,1512993383780
NMEA,$GLGSV,3,2,10,15,44,046,24,05,33,111,27,07,28,299,32,09,05,184,*6B
,1512993383784
NMEA,$GLGSV,3,3,10,23,18,348,,21,02,241,*65
,1512993383786
NMEA,$GPGSA,A,3,03,06,07,09,16,22,23,26,29,31,,,1.0,0.6,0.7*32
,1512993383787
NMEA,$GNGSA,A,3,70,71,78,80,86,87,,,,,,,1.0,0.6,0.7*2B
,1512993383787
NMEA,$GPVTG,,T,,M,0.0,N,0.0,K,D*26
,1512993383787
NMEA,$GPRMC,115623.00,A,5559.005240,N,03712.578536,E,0.0,,111217,8.8,E,D*1B
,1512993383787
NMEA,$GPGGA,115623.00,5559.005240,N,03712.578536,E,2,10,0.6,212.0,M,16.0,M,,*6E
,1512993383788
NMEA,$GPGSV,3,1,11,03,43,147,26,04,00,000,30,06,35,285,34,07,12,206,28*7C
,1512993384787
NMEA,$GPGSV,3,2,11,09,52,261,38,16,20,111,33,22,22,143,26,23,86,175,29*79
,1512993384787
NMEA,$GPGSV,3,3,11,26,28,077,31,31,13,045,25,02,18,320,*49
,1512993384787
NMEA,$GLGSV,3,1,10,14,07,021,28,06,80,338,23,22,23,289,29,16,49,153,22*6E
,1512993384787
NMEA,$GLGSV,3,2,10,15,44,046,26,05,33,111,29,07,28,299,32,09,05,184,*67
,1512993384787
NMEA,$GLGSV,3,3,10,23,18,348,,21,02,241,*65
,1512993384787
Fix,gps,55.983421,37.209642,228.000000,0.000000,4.551000,1512993384000
NMEA,$GPGSA,A,3,02,03,06,07,09,16,22,23,26,31,,,1.0,0.6,0.7*3B
,1512993384808
NMEA,$GNGSA,A,3,70,71,78,80,86,87,,,,,,,1.0,0.6,0.7*2B
,1512993384808
NMEA,$GPVTG,,T,,M,0.0,N,0.0,K,D*26
,1512993384808
NMEA,$GPRMC,115624.00,A,5559.005239,N,03712.578537,E,0.0,,111217,8.8,E,D*13
,1512993384808
NMEA,$GPGGA,115624.00,5559.005239,N,03712.578537,E,2,10,0.6,212.0,M,16.0,M,,*66
,1512993384808
NMEA,$GPGSV,3,1,12,03,43,147,25,04,00,000,27,06,35,285,35,07,12,206,19*79
,1512993385768
NMEA,$GPGSV,3,2,12,09,52,261,36,16,20,111,32,23,86,175,27,26,28,077,29*7C
,1512993385768
NMEA,$GPGSV,3,3,12,31,13,045,24,02,18,320,,22,22,143,,29,04,014,*7B
,1512993385768
NMEA,$GLGSV,3,1,10,14,07,021,29,22,23,289,28,15,44,046,25,05,33,111,25*66
,1512993385768
NMEA,$GLGSV,3,2,10,07,28,299,30,06,80,338,,09,05,184,,16,49,153,*63
,1512993385768
NMEA,$GLGSV,3,3,10,23,18,348,,21,02,241,*65
,1512993385768
Fix,gps,55.983421,37.209642,229.000000,0.000000,4.551000,1512993385000
NMEA,$GPGSA,A,3,02,03,06,07,09,16,22,23,26,29,31,,1.0,0.6,0.7*30
,1512993385771
NMEA,$GNGSA,A,3,70,71,78,80,86,87,,,,,,,1.0,0.6,0.7*2B
,1512993385771
NMEA,$GPVTG,,T,,M,0.0,N,0.0,K,D*26
,1512993385772
NMEA,$GPRMC,115625.00,A,5559.005239,N,03712.578537,E,0.0,,111217,8.8,E,D*12
,1512993385772
NMEA,$GPGGA,115625.00,5559.005239,N,03712.578537,E,2,11,0.6,213.0,M,16.0,M,,*67
,1512993385772
Fix,gps,55.983421,37.209642,229.000000,0.000000,4.551000,1512993386000
NMEA,$GPGSV,3,1,12,03,43,147,31,04,00,000,30,06,35,285,36,07,12,206,25*76
,1512993386770
NMEA,$GPGSV,3,2,12,09,52,261,38,16,20,111,35,22,22,143,23,23,86,175,34*75
,1512993386770
NMEA,$GPGSV,3,3,12,26,28,077,33,29,04,014,28,31,13,045,26,02,18,320,*7B
,1512993386771
NMEA,$GLGSV,3,1,10,14,07,021,31,22,23,289,29,16,49,153,23,15,44,046,26*62
,1512993386771
NMEA,$GLGSV,3,2,10,05,33,111,27,07,28,299,34,06,80,338,,09,05,184,*6B
,1512993386771
NMEA,$GLGSV,3,3,10,23,18,348,,21,02,241,*65
,1512993386771
NMEA,$GPGSA,A,3,02,03,06,07,09,16,22,23,26,29,31,,1.0,0.7,0.7*31
,1512993386772
NMEA,$GNGSA,A,3,70,71,78,80,86,,,,,,,,1.0,0.7,0.7*25
,1512993386772
NMEA,$GPVTG,,T,,M,0.0,N,0.0,K,D*26
,1512993386772
NMEA,$GPRMC,115626.00,A,5559.005238,N,03712.578537,E,0.0,,111217,8.8,E,D*10
,1512993386772
NMEA,$GPGGA,115626.00,5559.005238,N,03712.578537,E,2,11,0.7,213.0,M,16.0,M,,*64
,1512993386772
NMEA,$GPGSV,3,1,10,04,00,000,31,07,12,206,26,09,52,261,30,16,20,111,29*7F
,1512993387760
NMEA,$GPGSV,3,2,10,22,22,143,33,23,86,175,30,26,28,077,36,29,04,014,28*7B
,1512993387760
NMEA,$GPGSV,3,3,10,31,13,045,24,02,18,320,*75
,1512993387760
NMEA,$GLGSV,2,1,08,14,07,021,28,06,80,338,26,15,44,046,24,05,33,111,24*65
,1512993387760
NMEA,$GLGSV,2,2,08,07,28,299,27,09,05,184,,23,18,348,,21,02,241,*67
,1512993387760
Fix,gps,55.983421,37.209642,229.000000,0.000000,4.551000,1512993387000
NMEA,$GPGSA,A,3,07,09,16,22,23,26,29,31,,,,,1.0,0.7,0.7*36
,1512993387771
NMEA,$GNGSA,A,2,70,71,78,,,,,,,,,,1.0,0.7,0.7*22
,1512993387771
NMEA,$GPVTG,,T,,M,0.0,N,0.0,K,D*26
,1512993387771
NMEA,$GPRMC,115627.00,A,5559.005239,N,03712.578536,E,0.0,,111217,8.8,E,D*11
,1512993387772
NMEA,$GPGGA,115627.00,5559.005239,N,03712.578536,E,2,08,0.7,213.0,M,16.0,M,,*6D
,1512993387772
Fix,gps,55.983421,37.209642,229.000000,0.000000,4.551000,1512993388000
NMEA,$GPGSV,3,1,11,04,00,000,29,06,35,285,34,09,52,261,41,16,20,111,33*76
,1512993388761
NMEA,$GPGSV,3,2,11,22,22,143,30,23,86,175,33,26,28,077,35,29,04,014,27*76
,1512993388762
NMEA,$GPGSV,3,3,11,31,13,045,33,02,18,320,,03,43,147,*44
,1512993388762
NMEA,$GLGSV,3,1,10,14,07,021,27,06,80,338,24,22,23,289,29,15,44,046,22*6D
,1512993388762
NMEA,$GLGSV,3,2,10,05,33,111,32,07,28,299,28,09,05,184,,16,49,153,*69
,1512993388762
NMEA,$GLGSV,3,3,10,23,18,348,,21,02,241,*65
,1512993388762
NMEA,$GPGSA,A,3,03,06,09,16,22,23,26,29,31,,,,1.0,0.7,0.7*34
,1512993388763
NMEA,$GNGSA,A,3,70,71,78,80,86,,,,,,,,1.0,0.7,0.7*25
,1512993388763
NMEA,$GPVTG,,T,,M,0.0,N,0.0,K,D*26
,1512993388763
NMEA,$GPRMC,115628.00,A,5559.005240,N,03712.578537,E,0.0,,111217,8.8,E,D*11
,1512993388772
NMEA,$GPGGA,115628.00,5559.005240,N,03712.578537,E,2,09,0.7,213.0,M,16.0,M,,*6C
,1512993388772
Fix,gps,55.983421,37.209642,229.000000,0.000000,4.551000,1512993389000
NMEA,$GPGSV,3,1,11,03,43,147,29,04,00,000,30,06,35,285,27,07,12,206,27*7E
,1512993389794
NMEA,$GPGSV,3,2,11,09,52,261,34,16,20,111,24,22,22,143,28,23,86,175,31*74
,1512993389794
NMEA,$GPGSV,3,3,11,26,28,077,34,31,13,045,31,02,18,320,*49
,1512993389795
NMEA,$GLGSV,3,1,09,14,07,021,27,06,80,338,24,15,44,046,25,05,33,111,25*68
,1512993389795
NMEA,$GLGSV,3,2,09,07,28,299,24,09,05,184,,16,49,153,,23,18,348,*6F
,1512993389795
NMEA,$GLGSV,3,3,09,21,02,241,*5A
,1512993389795
NMEA,$GPGSA,A,3,03,06,07,09,16,22,23,26,31,,,,1.0,0.7,0.7*38
,1512993389798
NMEA,$GNGSA,A,3,70,71,78,80,,,,,,,,,1.0,0.7,0.7*2B
,1512993389799
NMEA,$GPVTG,,T,,M,0.0,N,0.0,K,D*26
,1512993389799
NMEA,$GPRMC,115629.00,A,5559.005238,N,03712.578537,E,0.0,,111217,8.8,E,D*1F
,1512993389799
NMEA,$GPGGA,115629.00,5559.005238,N,03712.578537,E,2,09,0.7,213.0,M,16.0,M,,*62
,1512993389799
Fix,gps,55.983421,37.209642,229.000000,0.000000,4.551000,1512993390000
NMEA,$GPGSV,3,1,11,03,43,147,29,04,00,000,30,06,35,285,27,07,12,206,27*7E
,1512993390752
NMEA,$GPGSV,3,2,11,09,52,261,34,16,20,111,24,22,22,143,28,23,86,175,31*74
,1512993390752
NMEA,$GPGSV,3,3,11,26,28,077,34,31,13,045,31,02,18,320,*49
,1512993390752
NMEA,$GLGSV,3,1,09,14,07,021,27,06,80,338,24,15,44,046,25,05,33,111,25*68
,1512993390752
NMEA,$GLGSV,3,2,09,07,28,299,24,09,05,184,,16,49,153,,23,18,348,*6F
,1512993390752
NMEA,$GLGSV,3,3,09,21,02,241,*5A
,1512993390752
NMEA,$GPGSA,A,3,03,06,07,09,16,22,23,26,31,,,,1.0,0.7,0.7*38
,1512993390753
NMEA,$GNGSA,A,3,70,71,78,80,,,,,,,,,1.0,0.7,0.7*2B
,1512993390753
NMEA,$GPVTG,,T,,M,0.0,N,0.0,K,D*26
,1512993390753
NMEA,$GPRMC,115630.00,A,5559.005237,N,03712.578536,E,0.0,,111217,8.8,E,D*19
,1512993390753
NMEA,$GPGGA,115630.00,5559.005237,N,03712.578536,E,2,09,0.7,213.0,M,16.0,M,,*64
,1512993390753
NMEA,$GPGSV,3,1,12,03,43,147,31,04,00,000,29,06,35,285,28,09,52,261,23*7C
,1512993391756
NMEA,$GPGSV,3,2,12,16,20,111,27,22,22,143,31,23,86,175,30,26,28,077,29*74
,1512993391756
NMEA,$GPGSV,3,3,12,31,13,045,24,02,18,320,,07,12,206,,29,04,014,*7D
,1512993391756
NMEA,$GLGSV,3,1,09,06,80,338,25,22,23,289,23,15,44,046,26,07,28,299,27*64
,1512993391756
NMEA,$GLGSV,3,2,09,14,07,021,,09,05,184,,16,49,153,,23,18,348,*67
,1512993391756
NMEA,$GLGSV,3,3,09,21,02,241,*5A
,1512993391756
Fix,gps,55.983421,37.209642,229.000000,0.000000,4.551000,1512993391000
NMEA,$GPGSA,A,3,03,06,07,09,16,22,23,26,29,31,,,1.0,0.7,0.7*33
,1512993391759
NMEA,$GNGSA,A,3,70,71,78,80,86,,,,,,,,1.0,0.7,0.7*25
,1512993391759
NMEA,$GPVTG,,T,,M,0.0,N,0.0,K,D*26
,1512993391759
NMEA,$GPRMC,115631.00,A,5559.005236,N,03712.578537,E,0.0,,111217,8.8,E,D*18
,1512993391759
NMEA,$GPGGA,115631.00,5559.005236,N,03712.578537,E,2,10,0.7,213.0,M,16.0,M,,*6D
,1512993391762
NMEA,$GPGSV,3,1,12,03,43,147,25,04,00,000,27,06,35,285,28,07,12,206,24*7B
,1512993392762
NMEA,$GPGSV,3,2,12,09,52,261,32,16,20,111,29,22,22,143,30,23,86,175,29*7C
,1512993392762
NMEA,$GPGSV,3,3,12,26,28,077,30,31,13,045,29,02,18,320,,29,04,014,*7D
,1512993392762
NMEA,$GLGSV,3,1,09,06,80,338,23,22,23,289,24,15,44,046,23,07,28,299,23*64
,1512993392762
NMEA,$GLGSV,3,2,09,14,07,021,,09,05,184,,16,49,153,,23,18,348,*67
,1512993392762
NMEA,$GLGSV,3,3,09,21,02,241,*5A
,1512993392762
Fix,gps,55.983421,37.209642,229.000000,0.000000,4.551000,1512993392000
NMEA,$GPGSA,A,3,03,06,07,09,16,22,23,26,29,31,,,1.0,0.7,0.7*33
,1512993392774
NMEA,$GNGSA,A,3,70,71,78,80,86,,,,,,,,1.0,0.7,0.7*25
,1512993392774
NMEA,$GPVTG,,T,,M,0.0,N,0.0,K,D*26
,1512993392774
NMEA,$GPRMC,115632.00,A,5559.005234,N,03712.578537,E,0.0,,111217,8.8,E,D*19
,1512993392774
NMEA,$GPGGA,115632.00,5559.005234,N,03712.578537,E,2,10,0.7,213.0,M,16.0,M,,*6C
,1512993392774
NMEA,$GPGSV,3,1,12,03,43,147,25,04,00,000,29,06,35,285,26,07,12,206,26*79
,1512993393756
NMEA,$GPGSV,3,2,12,09,52,261,32,16,20,111,29,22,22,143,29,23,86,175,31*7D
,1512993393756
NMEA,$GPGSV,3,3,12,26,28,077,33,31,13,045,30,02,18,320,,29,04,014,*76
,1512993393757
Fix,gps,55.983421,37.209642,229.000000,0.000000,4.551000,1512993393000
NMEA,$GLGSV,3,1,09,14,07,021,25,06,80,338,25,15,44,046,23,05,33,111,24*6C
,1512993393757
NMEA,$GLGSV,3,2,09,07,28,299,23,09,05,184,,16,49,153,,23,18,348,*68
,1512993393757
NMEA,$GLGSV,3,3,09,21,02,241,*5A
,1512993393757
NMEA,$GPGSA,A,3,03,06,07,09,16,22,23,26,29,31,,,1.0,0.7,0.7*33
,1512993393763
NMEA,$GNGSA,A,2,70,71,78,,,,,,,,,,1.0,0.7,0.7*22
,1512993393763
NMEA,$GPVTG,,T,,M,0.0,N,0.0,K,D*26
,1512993393763
NMEA,$GPRMC,115633.00,A,5559.005232,N,03712.578540,E,0.0,,111217,8.8,E,D*1E
,1512993393763
NMEA,$GPGGA,115633.00,5559.005232,N,03712.578540,E,2,10,0.7,213.0,M,16.0,M,,*6B
,1512993393764
Fix,gps,55.983421,37.209642,229.000000,0.000000,4.551000,1512993394000
NMEA,$GPGSV,3,1,12,03,43,147,25,04,00,000,29,06,35,285,26,07,12,206,26*79
,1512993394748
NMEA,$GPGSV,3,2,12,09,52,261,32,16,20,111,29,22,22,143,29,23,86,175,31*7D
,1512993394748
NMEA,$GPGSV,3,3,12,26,28,077,33,31,13,045,30,02,18,320,,29,04,014,*76
,1512993394748
NMEA,$GLGSV,3,1,09,14,07,021,25,06,80,338,25,15,44,046,23,05,33,111,24*6C
,1512993394749
NMEA,$GLGSV,3,2,09,07,28,299,23,09,05,184,,16,49,153,,23,18,348,*68
,1512993394749
NMEA,$GLGSV,3,3,09,21,02,241,*5A
,1512993394749
NMEA,$GPGSA,A,3,03,06,07,09,16,22,23,26,29,31,,,1.1,0.8,0.7*3D
,1512993394752
NMEA,$GNGSA,A,2,70,71,78,,,,,,,,,,1.1,0.8,0.7*2C
,1512993394752
NMEA,$GPVTG,,T,,M,0.0,N,0.0,K,D*26
,1512993394752
NMEA,$GPRMC,115634.00,A,5559.005231,N,03712.578542,E,0.0,,111217,8.8,E,D*18
,1512993394752
NMEA,$GPGGA,115634.00,5559.005231,N,03712.578542,E,2,10,0.8,213.0,M,16.0,M,,*62
,1512993394752
Fix,gps,55.983421,37.209642,229.000000,0.000000,4.551000,1512993395000
NMEA,$GPGSV,3,1,12,03,43,147,20,04,00,000,28,06,35,285,26,07,12,206,27*7C
,1512993395757
NMEA,$GPGSV,3,2,12,09,52,261,32,16,20,111,29,22,22,143,26,23,86,175,27*75
,1512993395757
NMEA,$GPGSV,3,3,12,26,28,077,30,31,13,045,27,02,18,320,,29,04,014,*73
,1512993395757
NMEA,$GLGSV,3,1,10,14,07,021,23,06,80,338,23,22,23,289,23,15,44,046,24*62
,1512993395757
NMEA,$GLGSV,3,2,10,05,33,111,24,09,05,184,,16,49,153,,23,18,348,*6C
,1512993395757
NMEA,$GLGSV,3,3,10,21,02,241,,07,28,299,*6D
,1512993395757
NMEA,$GPGSA,A,3,03,06,07,09,16,22,23,26,31,,,,1.1,0.8,0.7*36
,1512993395762
NMEA,$GNGSA,A,3,70,71,78,86,,,,,,,,,1.1,0.8,0.7*23
,1512993395762
NMEA,$GPVTG,,T,,M,0.0,N,0.0,K,D*26
,1512993395762
NMEA,$GPRMC,115635.00,A,5559.005232,N,03712.578542,E,0.0,,111217,8.8,E,D*1A
,1512993395762
NMEA,$GPGGA,115635.00,5559.005232,N,03712.578542,E,2,09,0.8,213.0,M,16.0,M,,*68
,1512993395762
Fix,gps,55.983421,37.209642,229.000000,0.000000,4.551000,1512993396000
NMEA,$GPGSV,3,1,11,04,00,000,29,06,35,285,26,07,12,206,27,09,52,261,29*7A
,1512993396762
NMEA,$GPGSV,3,2,11,16,20,111,28,22,22,143,29,23,86,175,29,26,28,077,29*79
,1512993396763
NMEA,$GPGSV,3,3,11,31,13,045,27,02,18,320,,29,04,014,*4D
,1512993396763
NMEA,$GLGSV,2,1,07,14,07,021,27,06,80,338,23,09,05,184,,16,49,153,*6E
,1512993396763
NMEA,$GLGSV,2,2,07,23,18,348,,21,02,241,,07,28,299,*5C
,1512993396763
NMEA,$GPGSA,A,3,06,07,09,16,22,23,26,31,,,,,1.1,0.8,0.7*35
,1512993396765
NMEA,$GNGSA,A,2,70,71,78,,,,,,,,,,1.1,0.8,0.7*2C
,1512993396765
NMEA,$GPVTG,,T,,M,0.0,N,0.0,K,D*26
,1512993396765
NMEA,$GPRMC,115636.00,A,5559.005232,N,03712.578543,E,0.0,,111217,8.8,E,D*18
,1512993396765
NMEA,$GPGGA,115636.00,5559.005232,N,03712.578543,E,2,08,0.8,213.0,M,16.0,M,,*6B
,1512993396766
NMEA,$GPGSV,3,1,11,04,00,000,29,06,35,285,26,07,12,206,27,09,52,261,29*7A
,1512993397750
NMEA,$GPGSV,3,2,11,16,20,111,28,22,22,143,29,23,86,175,29,26,28,077,29*79
,1512993397750
NMEA,$GPGSV,3,3,11,31,13,045,27,02,18,320,,29,04,014,*4D
,1512993397750
NMEA,$GLGSV,2,1,07,14,07,021,27,06,80,338,23,09,05,184,,16,49,153,*6E
,1512993397751
NMEA,$GLGSV,2,2,07,23,18,348,,21,02,241,,07,28,299,*5C
,1512993397751
Fix,gps,55.983421,37.209642,229.000000,0.000000,4.551000,1512993397000
NMEA,$GPGSA,A,3,06,07,09,16,22,23,26,31,,,,,1.1,0.8,0.7*35
,1512993397765
NMEA,$GNGSA,A,2,70,71,78,,,,,,,,,,1.1,0.8,0.7*2C
,1512993397765
NMEA,$GPVTG,,T,,M,0.0,N,0.0,K,D*26
,1512993397765
NMEA,$GPRMC,115637.00,A,5559.005231,N,03712.578543,E,0.0,,111217,8.8,E,D*1A
,1512993397766
NMEA,$GPGGA,115637.00,5559.005231,N,03712.578543,E,2,08,0.8,213.0,M,16.0,M,,*69
,1512993397766
Fix,gps,55.983421,37.209642,229.000000,0.000000,4.551000,1512993398000
NMEA,$GPGSV,3,1,12,04,00,000,29,06,35,285,23,07,12,206,22,09,52,261,33*72
,1512993398760
NMEA,$GPGSV,3,2,12,16,20,111,30,22,22,143,30,23,86,175,31,26,28,077,32*78
,1512993398760
NMEA,$GPGSV,3,3,12,29,04,014,22,31,13,045,27,02,18,320,,03,43,147,*78
,1512993398760
NMEA,$GLGSV,3,1,09,14,07,021,25,06,80,338,25,22,23,289,21,15,44,046,22*6E
,1512993398760
NMEA,$GLGSV,3,2,09,07,28,299,21,09,05,184,,16,49,153,,23,18,348,*6A
,1512993398760
NMEA,$GLGSV,3,3,09,21,02,241,*5A
,1512993398760
NMEA,$GPGSA,A,3,03,06,07,09,16,22,23,26,31,,,,1.0,0.7,0.7*38
,1512993398761
NMEA,$GNGSA,A,3,70,71,78,86,,,,,,,,,1.0,0.7,0.7*2D
,1512993398761
NMEA,$GPVTG,,T,,M,0.0,N,0.0,K,D*26
,1512993398761
NMEA,$GPRMC,115638.00,A,5559.005231,N,03712.578548,E,0.0,,111217,8.8,E,D*1E
,1512993398762
NMEA,$GPGGA,115638.00,5559.005231,N,03712.578548,E,2,09,0.7,213.0,M,16.0,M,,*63
,1512993398762
Fix,gps,55.983421,37.209642,229.000000,0.000000,4.551000,1512993399000
NMEA,$GPGSV,3,1,12,03,43,147,30,04,00,000,33,06,35,285,30,07,12,206,30*76
,1512993399765
NMEA,$GPGSV,3,2,12,09,52,261,40,16,20,111,34,22,22,143,29,23,86,175,33*76
,1512993399765
NMEA,$GPGSV,3,3,12,26,28,077,35,29,04,014,29,31,13,045,34,02,18,320,*7F
,1512993399765
NMEA,$GLGSV,3,1,09,14,07,021,35,06,80,338,29,22,23,289,24,16,49,153,25*6A
,1512993399765
NMEA,$GLGSV,3,2,09,15,44,046,30,07,28,299,31,09,05,184,,23,18,348,*63
,1512993399766
NMEA,$GLGSV,3,3,09,21,02,241,*5A
,1512993399766
NMEA,$GPGSA,A,3,03,06,07,09,16,22,23,26,29,31,,,1.0,0.7,0.7*33
,1512993399768
NMEA,$GNGSA,A,3,70,71,78,86,,,,,,,,,1.0,0.7,0.7*2D
,1512993399768
NMEA,$GPVTG,,T,,M,0.0,N,0.0,K,D*26
,1512993399769
NMEA,$GPRMC,115639.00,A,5559.005231,N,03712.578549,E,0.0,,111217,8.8,E,D*1E
,1512993399769
NMEA,$GPGGA,115639.00,5559.005231,N,03712.578549,E,2,10,0.7,213.0,M,16.0,M,,*6B
,1512993399769
Fix,gps,55.983420,37.209642,229.000000,0.000000,4.551000,1512993400000
NMEA,$GPGSV,3,1,12,03,43,147,32,04,00,000,32,06,35,285,35,07,12,206,34*74
,1512993400762
NMEA,$GPGSV,3,2,12,09,52,261,35,16,20,111,28,22,22,143,25,23,86,175,37*71
,1512993400762
NMEA,$GPGSV,3,3,12,26,28,077,32,29,04,014,32,31,13,045,25,02,18,320,*72
,1512993400762
NMEA,$GLGSV,3,1,09,14,07,021,35,06,80,338,27,22,23,289,31,16,49,153,27*62
,1512993400762
NMEA,$GLGSV,3,2,09,05,33,111,24,07,28,299,27,09,05,184,,23,18,348,*63
,1512993400762
NMEA,$GLGSV,3,3,09,21,02,241,*5A
,1512993400762
NMEA,$GPGSA,A,3,03,06,07,09,16,22,23,26,29,31,,,1.0,0.7,0.7*33
,1512993400763
NMEA,$GNGSA,A,3,70,71,78,80,86,,,,,,,,1.0,0.7,0.7*25
,1512993400763
NMEA,$GPVTG,,T,,M,0.0,N,0.0,K,D*26
,1512993400763
NMEA,$GPRMC,115640.00,A,5559.005229,N,03712.578548,E,0.0,,111217,8.8,E,D*18
,1512993400763
NMEA,$GPGGA,115640.00,5559.005229,N,03712.578548,E,2,10,0.7,213.0,M,16.0,M,,*6D
,1512993400763
Fix,gps,55.983420,37.209642,229.000000,0.000000,4.551000,1512993401000
NMEA,$GPGSV,3,1,10,02,18,320,25,04,00,000,35,06,35,285,33,07,12,206,31*78
,1512993401760
NMEA,$GPGSV,3,2,10,09,52,261,32,16,20,111,30,22,22,143,33,23,86,175,40*7A
,1512993401760
NMEA,$GPGSV,3,3,10,26,28,077,31,29,04,014,37*7A
,1512993401761
NMEA,$GLGSV,3,1,09,14,07,021,39,06,80,338,30,22,23,289,31,16,49,153,27*68
,1512993401761
NMEA,$GLGSV,3,2,09,15,44,046,29,07,28,299,31,09,05,184,,23,18,348,*6B
,1512993401761
NMEA,$GLGSV,3,3,09,21,02,241,*5A
,1512993401761
NMEA,$GPGSA,A,3,06,07,09,16,22,23,26,29,,,,,1.0,0.6,0.7*33
,1512993401762
NMEA,$GNGSA,A,3,70,71,78,80,86,,,,,,,,1.0,0.6,0.7*24
,1512993401762
NMEA,$GPVTG,,T,,M,0.0,N,0.0,K,D*26
,1512993401762
NMEA,$GPRMC,115641.00,A,5559.005229,N,03712.578541,E,0.0,,111217,8.8,E,D*10
,1512993401762
NMEA,$GPGGA,115641.00,5559.005229,N,03712.578541,E,2,08,0.6,213.0,M,16.0,M,,*6D
,1512993401762
NMEA,$GPGSV,3,1,12,02,18,320,24,04,00,000,32,06,35,285,32,07,12,206,27*7A
,1512993402758
NMEA,$GPGSV,3,2,12,09,52,261,29,16,20,111,30,22,22,143,27,23,86,175,37*77
,1512993402759
NMEA,$GPGSV,3,3,12,26,28,077,30,29,04,014,34,03,43,147,,31,13,045,*7D
,1512993402759
Fix,gps,55.983420,37.209642,229.000000,0.000000,4.551000,1512993402000
NMEA,$GLGSV,2,1,08,14,07,021,37,06,80,338,26,22,23,289,23,16,49,153,27*62
,1512993402759
NMEA,$GLGSV,2,2,08,07,28,299,27,09,05,184,,23,18,348,,21,02,241,*67
,1512993402765
NMEA,$GPGSA,A,3,02,03,06,07,09,16,22,23,26,29,31,,1.0,0.6,0.7*30
,1512993402766
NMEA,$GNGSA,A,3,70,71,78,80,86,,,,,,,,1.0,0.6,0.7*24
,1512993402766
NMEA,$GPVTG,,T,,M,0.0,N,0.0,K,D*26
,1512993402766
NMEA,$GPRMC,115642.00,A,5559.005227,N,03712.578537,E,0.0,,111217,8.8,E,D*1C
,1512993402766
NMEA,$GPGGA,115642.00,5559.005227,N,03712.578537,E,2,11,0.6,213.0,M,16.0,M,,*69
,1512993402766
NMEA,$GPGSV,3,1,10,03,43,147,27,04,00,000,30,06,35,285,27,07,12,206,32*75
,1512993403788
NMEA,$GPGSV,3,2,10,09,52,261,34,16,20,111,32,23,86,175,36,26,28,077,32*76
,1512993403788
NMEA,$GPGSV,3,3,10,29,04,014,34,31,13,045,*74
,1512993403788
NMEA,$GLGSV,2,1,07,14,07,021,32,22,23,289,24,16,49,153,23,05,33,111,24*6B
,1512993403788
NMEA,$GLGSV,2,2,07,23,18,348,27,09,05,184,,21,02,241,*57
,1512993403788
Fix,gps,55.983420,37.209642,229.000000,0.000000,4.551000,1512993403000
NMEA,$GPGSA,A,3,03,06,07,09,16,23,26,29,31,,,,1.0,0.6,0.7*32
,1512993403794
NMEA,$GNGSA,A,2,78,80,86,,,,,,,,,,1.0,0.6,0.7*24
,1512993403794
NMEA,$GPVTG,,T,,M,0.0,N,0.0,K,D*26
,1512993403794
NMEA,$GPRMC,115643.00,A,5559.005225,N,03712.578536,E,0.0,,111217,8.8,E,D*1E
,1512993403794
NMEA,$GPGGA,115643.00,5559.005225,N,03712.578536,E,2,09,0.6,213.0,M,16.0,M,,*62
,1512993403795
Fix,gps,55.983420,37.209642,229.000000,0.000000,4.551000,1512993404000
NMEA,$GPGSV,3,1,12,03,43,147,32,04,00,000,32,06,35,285,31,07,12,206,32*76
,1512993404758
NMEA,$GPGSV,3,2,12,09,52,261,33,16,20,111,30,22,22,143,25,23,86,175,36*7F
,1512993404760
NMEA,$GPGSV,3,3,12,26,28,077,35,29,04,014,32,31,13,045,28,02,18,320,*78
,1512993404760
NMEA,$GLGSV,3,1,09,14,07,021,31,06,80,338,26,22,23,289,28,16,49,153,27*6F
,1512993404760
NMEA,$GLGSV,3,2,09,05,33,111,24,23,18,348,24,07,28,299,26,09,05,184,*64
,1512993404760
NMEA,$GLGSV,3,3,09,21,02,241,*5A
,1512993404760
NMEA,$GPGSA,A,3,02,03,06,07,09,16,22,23,26,29,31,,1.0,0.6,0.7*30
,1512993404760
NMEA,$GNGSA,A,3,70,71,78,80,86,87,,,,,,,1.0,0.6,0.7*2B
,1512993404761
NMEA,$GPVTG,,T,,M,0.0,N,0.0,K,D*26
,1512993404761
NMEA,$GPRMC,115644.00,A,5559.005225,N,03712.578534,E,0.0,,111217,8.8,E,D*1B
,1512993404761
NMEA,$GPGGA,115644.00,5559.005225,N,03712.578534,E,2,11,0.6,213.0,M,16.0,M,,*6E
,1512993404761
NMEA,$GPGSV,3,1,12,02,18,320,26,03,43,147,28,04,00,000,34,06,35,285,35*70
,1512993405760
NMEA,$GPGSV,3,2,12,07,12,206,29,09,52,261,29,16,20,111,31,22,22,143,23*71
,1512993405760
NMEA,$GPGSV,3,3,12,23,86,175,36,26,28,077,36,29,04,014,33,31,13,045,26*77
,1512993405760
NMEA,$GLGSV,3,1,10,14,07,021,34,06,80,338,27,22,23,289,29,16,49,153,26*63
,1512993405760
NMEA,$GLGSV,3,2,10,15,44,046,23,05,33,111,26,23,18,348,26,07,28,299,24*68
,1512993405760
NMEA,$GLGSV,3,3,10,09,05,184,,21,02,241,*63
,1512993405760
Fix,gps,55.983420,37.209642,229.000000,0.000000,4.551000,1512993405000
NMEA,$GPGSA,A,3,02,03,06,07,09,16,22,23,26,29,31,,1.0,0.6,0.7*30
,1512993405767
NMEA,$GNGSA,A,3,70,71,78,80,86,87,,,,,,,1.0,0.6,0.7*2B
,1512993405767
NMEA,$GPVTG,,T,,M,0.0,N,0.0,K,D*26
,1512993405767
NMEA,$GPRMC,115645.00,A,5559.005225,N,03712.578531,E,0.0,,111217,8.8,E,D*1F
,1512993405767
NMEA,$GPGGA,115645.00,5559.005225,N,03712.578531,E,2,11,0.6,213.0,M,16.0,M,,*6A
,1512993405767
NMEA,$GPGSV,3,1,09,03,43,147,25,04,00,000,30,06,35,285,33,07,12,206,28*71
,1512993406756
NMEA,$GPGSV,3,2,09,09,52,261,28,16,20,111,27,23,86,175,34,26,28,077,30*77
,1512993406756
NMEA,$GPGSV,3,3,09,29,04,014,32*4B
,1512993406756
NMEA,$GLGSV,2,1,06,14,07,021,31,22,23,289,27,23,18,348,26,07,28,299,26*6C
,1512993406756
NMEA,$GLGSV,2,2,06,09,05,184,,21,02,241,*64
,1512993406756
Fix,gps,55.983420,37.209642,229.000000,0.000000,4.551000,1512993406000
NMEA,$GPGSA,A,3,03,06,07,09,16,23,26,29,,,,,1.0,0.6,0.7*30
,1512993406764
NMEA,$GNGSA,A,3,71,78,86,87,,,,,,,,,1.0,0.6,0.7*24
,1512993406765
NMEA,$GPVTG,,T,,M,0.0,N,0.0,K,D*26
,1512993406765
NMEA,$GPRMC,115646.00,A,5559.005223,N,03712.578529,E,0.0,,111217,8.8,E,D*13
,1512993406765
NMEA,$GPGGA,115646.00,5559.005223,N,03712.578529,E,2,08,0.6,213.0,M,16.0,M,,*6E
,1512993406765
Fix,gps,55.983420,37.209642,229.000000,0.000000,4.551000,1512993407000
NMEA,$GPGSV,3,1,09,03,43,147,25,04,00,000,30,06,35,285,33,07,12,206,28*71
,1512993407747
NMEA,$GPGSV,3,2,09,09,52,261,28,16,20,111,27,23,86,175,34,26,28,077,30*77
,1512993407747
NMEA,$GPGSV,3,3,09,29,04,014,32*4B
,1512993407747
NMEA,$GLGSV,2,1,06,14,07,021,31,22,23,289,27,23,18,348,26,07,28,299,26*6C
,1512993407747
NMEA,$GLGSV,2,2,06,09,05,184,,21,02,241,*64
,1512993407747
NMEA,$GPGSA,A,3,03,06,07,09,16,23,26,29,,,,,1.0,0.6,0.7*30
,1512993407753
NMEA,$GNGSA,A,3,71,78,86,87,,,,,,,,,1.0,0.6,0.7*24
,1512993407754
NMEA,$GPVTG,,T,,M,0.0,N,0.0,K,D*26
,1512993407754
NMEA,$GPRMC,115647.00,A,5559.005223,N,03712.578528,E,0.0,,111217,8.8,E,D*13
,1512993407754
NMEA,$GPGGA,115647.00,5559.005223,N,03712.578528,E,2,08,0.6,213.0,M,16.0,M,,*6E
,1512993407754
NMEA,$GPGSV,3,1,12,03,43,147,30,04,00,000,33,06,35,285,36,07,12,206,31*71
,1512993408787
NMEA,$GPGSV,3,2,12,09,52,261,34,16,20,111,29,23,86,175,36,26,28,077,35*79
,1512993408788
Fix,gps,55.983420,37.209642,229.000000,0.000000,4.551000,1512993408000
NMEA,$GPGSV,3,3,12,29,04,014,33,02,18,320,,22,22,143,,31,13,045,*7D
,1512993408788
NMEA,$GLGSV,3,1,09,14,07,021,31,06,80,338,26,22,23,289,30,16,49,153,28*69
,1512993408788
NMEA,$GLGSV,3,2,09,05,33,111,24,23,18,348,25,07,28,299,30,09,05,184,*62
,1512993408788
NMEA,$GLGSV,3,3,09,21,02,241,*5A
,1512993408788
NMEA,$GPGSA,A,3,02,03,06,07,09,16,22,23,26,29,31,,1.0,0.6,0.7*30
,1512993408792
NMEA,$GNGSA,A,3,70,71,78,80,86,87,,,,,,,1.0,0.6,0.7*2B
,1512993408792
NMEA,$GPVTG,,T,,M,0.0,N,0.0,K,D*26
,1512993408792
NMEA,$GPRMC,115648.00,A,5559.005219,N,03712.578524,E,0.0,,111217,8.8,E,D*19
,1512993408792
NMEA,$GPGGA,115648.00,5559.005219,N,03712.578524,E,2,11,0.6,213.0,M,16.0,M,,*6C
,1512993408792
Fix,gps,55.983420,37.209642,229.000000,0.000000,4.551000,1512993409000
NMEA,$GPGSV,3,1,12,02,18,320,24,03,43,147,33,04,00,000,33,06,35,285,38*72
,1512993409765
NMEA,$GPGSV,3,2,12,07,12,206,29,09,52,261,37,16,20,111,34,23,86,175,33*70
,1512993409765
NMEA,$GPGSV,3,3,12,26,28,077,32,29,04,014,33,31,13,045,28,22,22,143,*72
,1512993409765
NMEA,$GLGSV,2,1,07,14,07,021,28,22,23,289,34,15,44,046,26,05,33,111,33*69
,1512993409765
NMEA,$GLGSV,2,2,07,07,28,299,33,09,05,184,,21,02,241,*5A
,1512993409765
NMEA,$GPGSA,A,3,02,03,06,07,09,16,22,23,26,29,31,,1.0,0.6,0.7*30
,1512993409768
NMEA,$GNGSA,A,2,71,78,86,,,,,,,,,,1.0,0.6,0.7*2A
,1512993409769
NMEA,$GPVTG,,T,,M,0.0,N,0.0,K,D*26
,1512993409769
NMEA,$GPRMC,115649.00,A,5559.005217,N,03712.578521,E,0.0,,111217,8.8,E,D*13
,1512993409769
NMEA,$GPGGA,115649.00,5559.005217,N,03712.578521,E,2,11,0.6,213.0,M,16.0,M,,*66
,1512993409769
Fix,gps,55.983420,37.209642,229.000000,0.000000,4.551000,1512993410000
NMEA,$GPGSV,3,1,12,02,18,320,25,03,43,147,28,04,00,000,32,06,35,285,38*78
,1512993410753
NMEA,$GPGSV,3,2,12,07,12,206,32,09,52,261,37,16,20,111,28,23,86,175,36*72
,1512993410753
NMEA,$GPGSV,3,3,12,26,28,077,34,29,04,014,31,31,13,045,28,22,22,143,*76
,1512993410753
NMEA,$GLGSV,2,1,08,06,80,338,24,22,23,289,34,05,33,111,28,07,28,299,33*6A
,1512993410753
NMEA,$GLGSV,2,2,08,09,05,184,,16,49,153,,23,18,348,,21,02,241,*60
,1512993410753
NMEA,$GPGSA,A,3,02,03,06,07,09,16,22,23,26,29,31,,1.0,0.6,0.7*30
,1512993410754
NMEA,$GNGSA,A,3,70,71,80,86,87,,,,,,,,1.0,0.6,0.7*24
,1512993410754
NMEA,$GPVTG,,T,,M,0.0,N,0.0,K,D*26
,1512993410754
NMEA,$GPRMC,115650.00,A,5559.005214,N,03712.578518,E,0.0,,111217,8.8,E,D*12
,1512993410754
NMEA,$GPGGA,115650.00,5559.005214,N,03712.578518,E,2,11,0.6,213.0,M,16.0,M,,*67
,1512993410754
NMEA,$GPGSV,3,1,11,02,18,320,26,03,43,147,23,04,00,000,34,06,35,285,35*78
,1512993411756
NMEA,$GPGSV,3,2,11,07,12,206,31,09,52,261,35,22,22,143,24,23,86,175,36*7E
,1512993411756
Fix,gps,55.983420,37.209642,229.000000,0.000000,4.551000,1512993411000
NMEA,$GPGSV,3,3,11,26,28,077,36,29,04,014,31,31,13,045,22*4B
,1512993411756
NMEA,$GLGSV,3,1,10,14,07,021,32,06,80,338,26,22,23,289,31,16,49,153,23*68
,1512993411756
NMEA,$GLGSV,3,2,10,15,44,046,28,05,33,111,29,23,18,348,26,07,28,299,33*6A
,1512993411757
NMEA,$GLGSV,3,3,10,09,05,184,,21,02,241,*63
,1512993411757
NMEA,$GPGSA,A,3,02,03,06,07,09,22,23,26,29,31,,,1.0,0.6,0.7*37
,1512993411764
NMEA,$GNGSA,A,3,70,71,78,80,86,87,,,,,,,1.0,0.6,0.7*2B
,1512993411764
NMEA,$GPVTG,,T,,M,0.0,N,0.0,K,D*26
,1512993411764
NMEA,$GPRMC,115651.00,A,5559.005212,N,03712.578516,E,0.0,,111217,8.8,E,D*1B
,1512993411764
NMEA,$GPGGA,115651.00,5559.005212,N,03712.578516,E,2,10,0.6,213.0,M,16.0,M,,*6F
,1512993411764
Fix,gps,55.983420,37.209642,229.000000,0.000000,4.551000,1512993412000
NMEA,$GPGSV,3,1,12,02,18,320,25,03,43,147,30,04,00,000,34,06,35,285,35*7A
,1512993412760
NMEA,$GPGSV,3,2,12,07,12,206,31,09,52,261,36,16,20,111,29,22,22,143,26*7A
,1512993412760
NMEA,$GPGSV,3,3,12,23,86,175,35,26,28,077,35,29,04,014,32,31,13,045,31*70
,1512993412760
NMEA,$GLGSV,3,1,10,14,07,021,32,06,80,338,24,22,23,289,31,16,49,153,25*6C
,1512993412760
NMEA,$GLGSV,3,2,10,15,44,046,26,05,33,111,27,23,18,348,26,07,28,299,33*6A
,1512993412760
NMEA,$GLGSV,3,3,10,09,05,184,,21,02,241,*63
,1512993412760
NMEA,$GPGSA,A,3,02,03,06,07,09,16,22,23,26,29,31,,1.0,0.6,0.7*30
,1512993412763
NMEA,$GNGSA,A,3,70,71,78,80,86,87,,,,,,,1.0,0.6,0.7*2B
,1512993412764
NMEA,$GPVTG,,T,,M,0.0,N,0.0,K,D*26
,1512993412764
NMEA,$GPRMC,115652.00,A,5559.005211,N,03712.578517,E,0.0,,111217,8.8,E,D*1A
,1512993412764
NMEA,$GPGGA,115652.00,5559.005211,N,03712.578517,E,2,11,0.6,213.0,M,16.0,M,,*6F
,1512993412764
Fix,gps,55.983420,37.209642,229.000000,0.000000,4.551000,1512993413000
NMEA,$GPGSV,3,1,11,02,18,320,23,03,43,147,24,04,00,000,34,06,35,285,34*7B
,1512993413759
NMEA,$GPGSV,3,2,11,07,12,206,31,09,52,261,36,16,20,111,24,23,86,175,36*7F
,1512993413759
NMEA,$GPGSV,3,3,11,26,28,077,35,29,04,014,31,31,13,045,27*4D
,1512993413759
NMEA,$GLGSV,3,1,09,14,07,021,31,22,23,289,31,16,49,153,23,15,44,046,29*6C
,1512993413759
NMEA,$GLGSV,3,2,09,05,33,111,26,23,18,348,23,07,28,299,33,09,05,184,*65
,1512993413759
NMEA,$GLGSV,3,3,09,21,02,241,*5A
,1512993413759
NMEA,$GPGSA,A,3,02,03,06,07,09,16,23,26,29,31,,,1.0,0.6,0.7*30
,1512993413763
NMEA,$GNGSA,A,3,71,78,80,86,87,,,,,,,,1.0,0.6,0.7*2C
,1512993413763
NMEA,$GPVTG,,T,,M,0.0,N,0.0,K,D*26
,1512993413763
NMEA,$GPRMC,115653.00,A,5559.005209,N,03712.578516,E,0.0,,111217,8.8,E,D*13
,1512993413763
NMEA,$GPGGA,115653.00,5559.005209,N,03712.578516,E,2,10,0.6,213.0,M,16.0,M,,*67
,1512993413763
Fix,gps,55.983420,37.209642,229.000000,0.000000,4.551000,1512993414000
NMEA,$GPGSV,3,1,12,02,18,320,23,03,43,147,33,04,00,000,34,06,35,285,35*7F
,1512993414760
NMEA,$GPGSV,3,2,12,07,12,206,32,09,52,261,37,16,20,111,34,22,22,143,29*7B
,1512993414760
NMEA,$GPGSV,3,3,12,23,86,175,33,26,28,077,35,29,04,014,33,31,13,045,34*72
,1512993414760
NMEA,$GLGSV,3,1,09,14,07,021,36,06,80,338,25,22,23,289,28,16,49,153,29*65
,1512993414760
NMEA,$GLGSV,3,2,09,05,33,111,27,23,18,348,25,07,28,299,31,09,05,184,*60
,1512993414760
NMEA,$GLGSV,3,3,09,21,02,241,*5A
,1512993414760
NMEA,$GPGSA,A,3,02,03,06,07,09,16,22,23,26,29,31,,1.0,0.6,0.7*30
,1512993414763
NMEA,$GNGSA,A,3,70,71,78,80,86,87,,,,,,,1.0,0.6,0.7*2B
,1512993414763
NMEA,$GPVTG,,T,,M,0.0,N,0.0,K,D*26
,1512993414763
NMEA,$GPRMC,115654.00,A,5559.005208,N,03712.578516,E,0.0,,111217,8.8,E,D*15
,1512993414763
NMEA,$GPGGA,115654.00,5559.005208,N,03712.578516,E,2,11,0.6,213.0,M,16.0,M,,*60
,1512993414763
NMEA,$GPGSV,3,1,10,03,43,147,27,04,00,000,30,06,35,285,35,07,12,206,32*76
,1512993415759
Fix,gps,55.983420,37.209642,229.000000,0.000000,4.551000,1512993415000
NMEA,$GPGSV,3,2,10,09,52,261,35,16,20,111,28,23,86,175,35,26,28,077,32*7F
,1512993415759
NMEA,$GPGSV,3,3,10,29,04,014,32,31,13,045,28*78
,1512993415759
NMEA,$GLGSV,3,1,09,14,07,021,34,06,80,338,25,22,23,289,31,16,49,153,23*65
,1512993415759
NMEA,$GLGSV,3,2,09,05,33,111,27,23,18,348,25,07,28,299,30,09,05,184,*61
,1512993415759
NMEA,$GLGSV,3,3,09,21,02,241,*5A
,1512993415759
NMEA,$GPGSA,A,3,03,06,07,09,16,23,26,29,31,,,,1.0,0.6,0.7*32
,1512993415762
NMEA,$GNGSA,A,3,70,71,78,80,86,87,,,,,,,1.0,0.6,0.7*2B
,1512993415762
NMEA,$GPVTG,,T,,M,0.0,N,0.0,K,D*26
,1512993415762
NMEA,$GPRMC,115655.00,A,5559.005208,N,03712.578509,E,0.0,,111217,8.8,E,D*1A
,1512993415762
NMEA,$GPGGA,115655.00,5559.005208,N,03712.578509,E,2,09,0.6,213.0,M,16.0,M,,*66
,1512993415762
NMEA,$GPGSV,3,1,11,02,18,320,23,04,00,000,30,06,35,285,35,07,12,206,33*7E
,1512993416760
Fix,gps,55.983420,37.209642,229.000000,0.000000,4.551000,1512993416000
NMEA,$GPGSV,3,2,11,09,52,261,33,16,20,111,28,23,86,175,38,26,28,077,30*77
,1512993416760
NMEA,$GPGSV,3,3,11,29,04,014,34,31,13,045,24,22,22,143,*45
,1512993416760
NMEA,$GLGSV,2,1,08,14,07,021,34,06,80,338,29,22,23,289,30,15,44,046,23*63
,1512993416760
NMEA,$GLGSV,2,2,08,23,18,348,25,07,28,299,28,09,05,184,,21,02,241,*6F
,1512993416760
NMEA,$GPGSA,A,3,02,06,07,09,16,22,23,26,29,31,,,1.0,0.6,0.7*33
,1512993416762
NMEA,$GNGSA,A,3,70,71,78,86,87,,,,,,,,1.0,0.6,0.7*23
,1512993416763
NMEA,$GPVTG,,T,,M,0.0,N,0.0,K,D*26
,1512993416763
NMEA,$GPRMC,115656.00,A,5559.005208,N,03712.578506,E,0.0,,111217,8.8,E,D*16
,1512993416763
NMEA,$GPGGA,115656.00,5559.005208,N,03712.578506,E,2,10,0.6,213.0,M,16.0,M,,*62
,1512993416763
Fix,gps,55.983420,37.209642,229.000000,0.000000,4.551000,1512993417000
NMEA,$GPGSV,3,1,12,02,18,320,25,04,00,000,32,06,35,285,35,07,12,206,33*79
,1512993417757
NMEA,$GPGSV,3,2,12,09,52,261,33,16,20,111,27,22,22,143,24,23,86,175,37*79
,1512993417758
NMEA,$GPGSV,3,3,12,26,28,077,32,29,04,014,34,31,13,045,28,03,43,147,*75
,1512993417758
NMEA,$GLGSV,3,1,10,14,07,021,33,06,80,338,29,22,23,289,30,15,44,046,26*69
,1512993417758
NMEA,$GLGSV,3,2,10,05,33,111,24,23,18,348,28,07,28,299,30,09,05,184,*67
,1512993417758
NMEA,$GLGSV,3,3,10,16,49,153,,21,02,241,*6F
,1512993417758
NMEA,$GPGSA,A,3,02,03,06,07,09,16,22,23,26,29,31,,1.0,0.6,0.7*30
,1512993417759
NMEA,$GNGSA,A,3,70,71,78,80,86,87,,,,,,,1.0,0.6,0.7*2B
,1512993417759
NMEA,$GPVTG,,T,,M,0.0,N,0.0,K,D*26
,1512993417759
NMEA,$GPRMC,115657.00,A,5559.005207,N,03712.578504,E,0.0,,111217,8.8,E,D*1A
,1512993417759
NMEA,$GPGGA,115657.00,5559.005207,N,03712.578504,E,2,11,0.6,213.0,M,16.0,M,,*6F
,1512993417759
Fix,gps,55.983420,37.209642,229.000000,0.000000,4.551000,1512993418000
NMEA,$GPGSV,3,1,12,02,18,320,24,04,00,000,33,06,35,285,35,07,12,206,33*79
,1512993418757
NMEA,$GPGSV,3,2,12,09,52,261,36,16,20,111,32,22,22,143,22,23,86,175,37*7E
,1512993418757
NMEA,$GPGSV,3,3,12,26,28,077,35,29,04,014,32,31,13,045,28,03,43,147,*74
,1512993418757
NMEA,$GLGSV,3,1,09,14,07,021,32,06,80,338,28,22,23,289,31,16,49,153,27*6A
,1512993418757
NMEA,$GLGSV,3,2,09,15,44,046,24,23,18,348,27,07,28,299,32,09,05,184,*60
,1512993418757
NMEA,$GLGSV,3,3,09,21,02,241,*5A
,1512993418758
NMEA,$GPGSA,A,3,02,03,06,07,09,16,22,23,26,29,31,,1.0,0.6,0.7*30
,1512993418761
NMEA,$GNGSA,A,3,70,71,78,80,86,87,,,,,,,1.0,0.6,0.7*2B
,1512993418761
NMEA,$GPVTG,,T,,M,0.0,N,0.0,K,D*26
,1512993418761
NMEA,$GPRMC,115658.00,A,5559.005206,N,03712.578503,E,0.0,,111217,8.8,E,D*13
,1512993418761
NMEA,$GPGGA,115658.00,5559.005206,N,03712.578503,E,2,11,0.6,213.0,M,16.0,M,,*66
,1512993418762
Fix,gps,55.983420,37.209642,229.000000,0.000000,4.551000,1512993419000
NMEA,$GPGSV,3,1,11,03,43,147,33,04,00,000,32,06,35,285,33,07,12,206,32*76
,1512993419760
NMEA,$GPGSV,3,2,11,09,52,261,37,16,20,111,32,22,22,143,29,23,86,175,32*72
,1512993419760
NMEA,$GPGSV,3,3,11,26,28,077,36,29,04,014,32,31,13,045,33*48
,1512993419760
NMEA,$GLGSV,3,1,10,14,07,021,32,06,80,338,27,22,23,289,27,16,49,153,30*6C
,1512993419760
NMEA,$GLGSV,3,2,10,15,44,046,30,05,33,111,31,23,18,348,23,07,28,299,30*6C
,1512993419761
NMEA,$GLGSV,3,3,10,09,05,184,,21,02,241,*63
,1512993419761
NMEA,$GPGSA,A,3,03,06,07,09,16,22,23,26,29,31,,,1.0,0.6,0.7*32
,1512993419766
NMEA,$GNGSA,A,3,70,71,78,80,86,87,,,,,,,1.0,0.6,0.7*2B
,1512993419766
NMEA,$GPVTG,,T,,M,0.0,N,0.0,K,D*26
,1512993419766
NMEA,$GPRMC,115659.00,A,5559.005206,N,03712.578506,E,0.0,,111217,8.8,E,D*17
,1512993419766
NMEA,$GPGGA,115659.00,5559.005206,N,03712.578506,E,2,10,0.6,213.0,M,16.0,M,,*63
,1512993419766
NMEA,$GPGSV,3,1,11,03,43,147,23,04,00,000,29,06,35,285,32,07,12,206,26*79
,1512993420760
Fix,gps,55.983420,37.209642,229.000000,0.000000,4.551000,1512993420000
NMEA,$GPGSV,3,2,11,09,52,261,37,16,20,111,33,22,22,143,26,23,86,175,33*7D
,1512993420760
NMEA,$GPGSV,3,3,11,26,28,077,32,31,13,045,35,02,18,320,*4B
,1512993420760
NMEA,$GLGSV,2,1,06,14,07,021,35,06,80,338,27,22,23,289,28,07,28,299,30*60
,1512993420760
NMEA,$GLGSV,2,2,06,09,05,184,,21,02,241,*64
,1512993420760
NMEA,$GPGSA,A,3,02,03,06,07,09,16,22,23,26,31,,,1.0,0.6,0.7*3B
,1512993420763
NMEA,$GNGSA,A,3,70,71,78,86,,,,,,,,,1.0,0.6,0.7*2C
,1512993420765
NMEA,$GPVTG,,T,,M,0.0,N,0.0,K,D*26
,1512993420765
NMEA,$GPRMC,115700.00,A,5559.005206,N,03712.578507,E,0.0,,111217,8.8,E,D*1B
,1512993420765
NMEA,$GPGGA,115700.00,5559.005206,N,03712.578507,E,2,10,0.6,213.0,M,16.0,M,,*6F
,1512993420765
Fix,gps,55.983420,37.209642,229.000000,0.000000,4.551000,1512993421000
NMEA,$GPGSV,3,1,11,04,00,000,29,06,35,285,29,07,12,206,23,09,52,261,34*7D
,1512993421756
NMEA,$GPGSV,3,2,11,16,20,111,28,22,22,143,28,23,86,175,33,26,28,077,32*79
,1512993421756
NMEA,$GPGSV,3,3,11,31,13,045,34,02,18,320,,29,04,014,*4F
,1512993421756
NMEA,$GLGSV,2,1,08,14,07,021,32,06,80,338,26,22,23,289,27,07,28,299,24*62
,1512993421756
NMEA,$GLGSV,2,2,08,09,05,184,,16,49,153,,23,18,348,,21,02,241,*60
,1512993421756
NMEA,$GPGSA,A,3,02,06,07,09,16,22,23,26,29,31,,,1.0,0.6,0.7*33
,1512993421756
NMEA,$GNGSA,A,3,70,71,78,80,86,87,,,,,,,1.0,0.6,0.7*2B
,1512993421757
NMEA,$GPVTG,,T,,M,0.0,N,0.0,K,D*26
,1512993421757
NMEA,$GPRMC,115701.00,A,5559.005205,N,03712.578507,E,0.0,,111217,8.8,E,D*19
,1512993421757
NMEA,$GPGGA,115701.00,5559.005205,N,03712.578507,E,2,10,0.6,213.0,M,16.0,M,,*6D
,1512993421757
Fix,gps,55.983420,37.209642,229.000000,0.000000,4.551000,1512993422000
NMEA,$GPGSV,3,1,12,03,43,147,25,04,00,000,30,06,35,285,28,07,12,206,25*7C
,1512993422809
NMEA,$GPGSV,3,2,12,09,52,261,34,16,20,111,30,22,22,143,30,23,86,175,33*79
,1512993422809
NMEA,$GPGSV,3,3,12,26,28,077,34,29,04,014,20,31,13,045,33,02,18,320,*70
,1512993422809
NMEA,$GLGSV,3,1,10,14,07,021,32,06,80,338,24,22,23,289,25,15,44,046,20*67
,1512993422809
NMEA,$GLGSV,3,2,10,05,33,111,18,07,28,299,20,09,05,184,,16,49,153,*69
,1512993422809
NMEA,$GLGSV,3,3,10,23,18,348,,21,02,241,*65
,1512993422809
NMEA,$GPGSA,A,3,02,03,06,07,09,16,22,23,26,29,31,,1.0,0.6,0.7*30
,1512993422834
NMEA,$GNGSA,A,3,70,71,78,80,86,87,,,,,,,1.0,0.6,0.7*2B
,1512993422834
NMEA,$GPVTG,,T,,M,0.0,N,0.0,K,D*26
,1512993422834
NMEA,$GPRMC,115702.00,A,5559.005204,N,03712.578510,E,0.0,,111217,8.8,E,D*1D
,1512993422834
NMEA,$GPGGA,115702.00,5559.005204,N,03712.578510,E,2,11,0.6,213.0,M,16.0,M,,*68
,1512993422834
Fix,gps,55.983420,37.209642,229.000000,0.000000,4.551000,1512993423000
NMEA,$GPGSV,3,1,12,03,43,147,25,04,00,000,30,06,35,285,27,07,12,206,29*7F
,1512993423755
NMEA,$GPGSV,3,2,12,09,52,261,33,16,20,111,31,22,22,143,30,23,86,175,30*7C
,1512993423755
NMEA,$GPGSV,3,3,12,26,28,077,33,29,04,014,20,31,13,045,33,02,18,320,*77
,1512993423755
NMEA,$GLGSV,3,1,10,14,07,021,31,06,80,338,24,22,23,289,25,15,44,046,25*61
,1512993423755
NMEA,$GLGSV,3,2,10,05,33,111,18,07,28,299,20,09,05,184,,16,49,153,*69
,1512993423755
NMEA,$GLGSV,3,3,10,23,18,348,,21,02,241,*65
,1512993423755
NMEA,$GPGSA,A,3,02,03,06,07,09,16,22,23,26,29,31,,1.0,0.6,0.7*30
,1512993423760
NMEA,$GNGSA,A,3,70,71,78,80,86,87,,,,,,,1.0,0.6,0.7*2B
,1512993423760
NMEA,$GPVTG,,T,,M,0.0,N,0.0,K,D*26
,1512993423760
NMEA,$GPRMC,115703.00,A,5559.005204,N,03712.578510,E,0.0,,111217,8.8,E,D*1C
,1512993423760
NMEA,$GPGGA,115703.00,5559.005204,N,03712.578510,E,2,11,0.6,213.0,M,16.0,M,,*69
,1512993423760
NMEA,$GPGSV,3,1,12,03,43,147,25,04,00,000,30,06,35,285,26,07,12,206,27*70
,1512993424753
NMEA,$GPGSV,3,2,12,09,52,261,32,16,20,111,31,22,22,143,30,23,86,175,30*7D
,1512993424754
NMEA,$GPGSV,3,3,12,26,28,077,33,29,04,014,20,31,13,045,32,02,18,320,*76
,1512993424754
NMEA,$GLGSV,3,1,10,14,07,021,30,06,80,338,24,22,23,289,23,15,44,046,25*66
,1512993424754
Fix,gps,55.983420,37.209642,229.000000,0.000000,4.551000,1512993424000
NMEA,$GLGSV,3,2,10,05,33,111,18,07,28,299,20,09,05,184,,16,49,153,*69
,1512993424754
NMEA,$GLGSV,3,3,10,23,18,348,,21,02,241,*65
,1512993424754
NMEA,$GPGSA,A,3,02,03,06,07,09,16,22,23,26,29,31,,1.0,0.7,0.7*31
,1512993424759
NMEA,$GNGSA,A,3,70,71,78,80,86,87,,,,,,,1.0,0.7,0.7*2A
,1512993424759
NMEA,$GPVTG,,T,,M,0.0,N,0.0,K,D*26
,1512993424759
NMEA,$GPRMC,115704.00,A,5559.005204,N,03712.578513,E,0.0,,111217,8.8,E,D*18
,1512993424760
NMEA,$GPGGA,115704.00,5559.005204,N,03712.578513,E,2,11,0.7,213.0,M,16.0,M,,*6C
,1512993424760
Fix,gps,55.983420,37.209642,229.000000,0.000000,4.551000,1512993425000
NMEA,$GPGSV,3,1,12,03,43,147,26,04,00,000,31,06,35,285,27,07,12,206,28*7C
,1512993425762
NMEA,$GPGSV,3,2,12,09,52,261,33,16,20,111,31,22,22,143,30,23,86,175,32*7E
,1512993425762
NMEA,$GPGSV,3,3,12,26,28,077,34,31,13,045,32,02,18,320,,29,04,014,*73
,1512993425762
NMEA,$GLGSV,3,1,09,14,07,021,31,15,44,046,23,05,33,111,18,06,80,338,*61
,1512993425762
NMEA,$GLGSV,3,2,09,09,05,184,,16,49,153,,23,18,348,,21,02,241,*60
,1512993425763
NMEA,$GLGSV,3,3,09,07,28,299,*53
,1512993425763
NMEA,$GPGSA,A,3,03,06,07,09,16,22,23,26,29,31,,,1.0,0.7,0.7*33
,1512993425763
NMEA,$GNGSA,A,3,70,71,78,80,87,,,,,,,,1.0,0.7,0.7*24
,1512993425763
NMEA,$GPVTG,,T,,M,0.0,N,0.0,K,D*26
,1512993425764
NMEA,$GPRMC,115705.00,A,5559.005203,N,03712.578516,E,0.0,,111217,8.8,E,D*1B
,1512993425764
NMEA,$GPGGA,115705.00,5559.005203,N,03712.578516,E,2,10,0.7,213.0,M,16.0,M,,*6E
,1512993425764
Fix,gps,55.983420,37.209642,229.000000,0.000000,4.551000,1512993426000
NMEA,$GPGSV,3,1,12,03,43,147,29,04,00,000,30,06,35,285,30,07,12,206,27*7B
,1512993426764
NMEA,$GPGSV,3,2,12,09,52,261,31,16,20,111,30,22,22,143,34,23,86,175,34*7F
,1512993426764
NMEA,$GPGSV,3,3,12,26,28,077,34,31,13,045,34,02,18,320,,29,04,014,*75
,1512993426764
NMEA,$GLGSV,3,1,09,14,07,021,30,06,80,338,24,05,33,111,18,22,23,289,*63
,1512993426764
NMEA,$GLGSV,3,2,09,09,05,184,,16,49,153,,23,18,348,,21,02,241,*60
,1512993426765
NMEA,$GLGSV,3,3,09,07,28,299,*53
,1512993426765
NMEA,$GPGSA,A,3,03,06,07,09,16,22,23,26,29,31,,,1.0,0.7,0.7*33
,1512993426768
NMEA,$GNGSA,A,3,70,71,78,86,,,,,,,,,1.0,0.7,0.7*2D
,1512993426768
NMEA,$GPVTG,,T,,M,0.0,N,0.0,K,D*26
,1512993426768
NMEA,$GPRMC,115706.00,A,5559.005202,N,03712.578519,E,0.0,,111217,8.8,E,D*16
,1512993426769
NMEA,$GPGGA,115706.00,5559.005202,N,03712.578519,E,2,10,0.7,213.0,M,16.0,M,,*63
,1512993426769
Fix,gps,55.983420,37.209642,229.000000,0.000000,4.551000,1512993427000
NMEA,$GPGSV,3,1,12,03,43,147,28,04,00,000,28,06,35,285,28,07,12,206,27*7A
,1512993427756
NMEA,$GPGSV,3,2,12,09,52,261,31,16,20,111,31,22,22,143,34,23,86,175,33*79
,1512993427757
NMEA,$GPGSV,3,3,12,26,28,077,33,29,04,014,24,31,13,045,33,02,18,320,*73
,1512993427757
NMEA,$GLGSV,3,1,09,14,07,021,30,06,80,338,26,05,33,111,18,22,23,289,*61
,1512993427757
NMEA,$GLGSV,3,2,09,09,05,184,,16,49,153,,23,18,348,,21,02,241,*60
,1512993427757
NMEA,$GLGSV,3,3,09,07,28,299,*53
,1512993427757
NMEA,$GPGSA,A,3,03,06,07,09,16,22,23,26,29,31,,,1.0,0.7,0.7*33
,1512993427759
NMEA,$GNGSA,A,3,70,71,78,86,,,,,,,,,1.0,0.7,0.7*2D
,1512993427759
NMEA,$GPVTG,,T,,M,0.0,N,0.0,K,D*26
,1512993427759
NMEA,$GPRMC,115707.00,A,5559.005199,N,03712.578524,E,0.0,,111217,8.8,E,D*18
,1512993427760
NMEA,$GPGGA,115707.00,5559.005199,N,03712.578524,E,2,10,0.7,213.0,M,16.0,M,,*6D
,1512993427760
Fix,gps,55.983420,37.209642,229.000000,0.000000,4.551000,1512993428000
NMEA,$GPGSV,3,1,10,03,43,147,32,04,00,000,29,06,35,285,29,09,52,261,34*7A
,1512993428760
NMEA,$GPGSV,3,2,10,16,20,111,34,22,22,143,32,23,86,175,33,26,28,077,35*79
,1512993428760
NMEA,$GPGSV,3,3,10,31,13,045,35,02,18,320,*75
,1512993428760
NMEA,$GLGSV,3,1,09,14,07,021,28,06,80,338,25,05,33,111,18,22,23,289,*6B
,1512993428760
NMEA,$GLGSV,3,2,09,09,05,184,,16,49,153,,23,18,348,,21,02,241,*60
,1512993428760
NMEA,$GLGSV,3,3,09,07,28,299,*53
,1512993428760
NMEA,$GPGSA,A,3,03,06,09,16,22,23,26,31,,,,,1.0,0.7,0.7*3F
,1512993428763
NMEA,$GNGSA,A,3,70,71,78,86,,,,,,,,,1.0,0.7,0.7*2D
,1512993428763
NMEA,$GPVTG,,T,,M,0.0,N,0.0,K,D*26
,1512993428763
NMEA,$GPRMC,115708.00,A,5559.005198,N,03712.578528,E,0.0,,111217,8.8,E,D*1A
,1512993428763
NMEA,$GPGGA,115708.00,5559.005198,N,03712.578528,E,2,08,0.7,213.0,M,16.0,M,,*66
,1512993428764
Fix,gps,55.983420,37.209642,229.000000,0.000000,4.551000,1512993429000
NMEA,$GPGSV,3,1,12,03,43,147,29,04,00,000,30,06,35,285,29,09,52,261,36*78
,1512993429760
NMEA,$GPGSV,3,2,12,16,20,111,33,22,22,143,33,23,86,175,32,26,28,077,32*7B
,1512993429760
NMEA,$GPGSV,3,3,12,29,04,014,24,31,13,045,34,02,18,320,,07,12,206,*7A
,1512993429760
NMEA,$GLGSV,3,1,10,14,07,021,28,06,80,338,25,22,23,289,23,15,44,046,23*68
,1512993429760
NMEA,$GLGSV,3,2,10,05,33,111,18,07,28,299,27,09,05,184,,16,49,153,*6E
,1512993429760
NMEA,$GLGSV,3,3,10,23,18,348,,21,02,241,*65
,1512993429761
NMEA,$GPGSA,A,3,03,06,07,09,16,22,23,26,29,31,,,1.0,0.7,0.7*33
,1512993429763
NMEA,$GNGSA,A,2,70,78,86,,,,,,,,,,1.0,0.7,0.7*2A
,1512993429763
NMEA,$GPVTG,,T,,M,0.0,N,0.0,K,D*26
,1512993429764
