# 
# Header Description:
# 
# Version: v2.0.0.1 Platform: 7.0 Manufacturer: Highscreen Model: Power Ice Evo
# 
# Raw,ElapsedRealtimeMillis,TimeNanos,LeapSecond,TimeUncertaintyNanos,FullBiasNanos,BiasNanos,BiasUncertaintyNanos,DriftNanosPerSecond,DriftUncertaintyNanosPerSecond,HardwareClockDiscontinuityCount,Svid,TimeOffsetNanos,State,ReceivedSvTimeNanos,ReceivedSvTimeUncertaintyNanos,Cn0DbHz,PseudorangeRateMetersPerSecond,PseudorangeRateUncertaintyMetersPerSecond,AccumulatedDeltaRangeState,AccumulatedDeltaRangeMeters,AccumulatedDeltaRangeUncertaintyMeters,CarrierFrequencyHz,CarrierCycles,CarrierPhase,CarrierPhaseUncertainty,MultipathIndicator,SnrInDb,ConstellationType,AgcDb,CarrierFrequencyHz
# 
# Fix,Provider,Latitude,Longitude,Altitude,Speed,Accuracy,(UTC)TimeInMs
# 
# Nav,Svid,Type,Status,MessageId,Sub-messageId,Data(Bytes)
# 
NMEA,$GPGGA,115727.000,5559.0002,N,03712.5986,E,1,8,0.95,211.2,M,14.9,M,,*58
,1512993447000
NMEA,$GPGSA,A,3,31,26,23,16,22,09,06,07,,,,,1.27,0.95,0.84*0E
,1512993447000
NMEA,$PMTKGEPH,13,1,2,1,0,0,1,2,0,1,0,0,0,0,0,0,2,0,0,1,0,0,1,1,0,0,1,0,0,2,0,1,0*37
,1512993447000
NMEA,$PMTKGALM,31,1,1,1,0,1,1,1,1,1,1,1,1,1,1,1,1,1,1,1,1,1,1,1,1,1,1,1,1,1,1,1,1*2A
,1512993447000
NMEA,$GPGSV,3,1,11,23,87,178,19.1,09,53,262,27.2,03,44,148,,06,37,286,20.0*60
,1512993447000
Raw,435341196,1197028665000999936,18,114.66222509271053,295399,0.0,114.66222509271053,209.32477632428274,3.749324691733458,0,6,0.0,47,129464926755469,199,16.0,463.26092529296875,0.1499999,0,0.0,0.0,1.57542003E9,,,,0,0.0,1,,1.57542003E9
Raw,435341200,1197028665000999936,18,114.66222509271053,295399,0.0,114.66222509271053,209.32477632428274,3.749324691733458,0,7,0.0,47,12597,197,18.0,-3283.8349609375,0.1499999,0,0.0,0.0,1.57542003E9,,,,0,1.0102999566398125,1,,1.57542003E9
Raw,435341202,1197028665000999936,18,114.66222509271053,295399,0.0,114.66222509271053,209.32477632428274,3.749324691733458,0,16,0.0,63,566207,199,16.0,-2559.1865234375,0.1499999,0,0.0,0.0,1.57542003E9,,,,0,0.0,1,,1.57542003E9
Raw,435341204,1197028665000999936,18,114.66222509271053,295399,0.0,114.66222509271053,209.32477632428274,3.749324691733458,0,22,0.0,47,129464922395917,198,17.0,3713.974609375,0.1499999,0,0.0,0.0,1.57542003E9,,,,0,0.010299956639812535,1,,1.57542003E9
Raw,435341207,1197028665000999936,18,114.66222509271053,295399,0.0,114.66222509271053,209.32477632428274,3.749324691733458,0,23,0.0,47,129464932371418,195,20.0,181.46986389160156,0.1499999,0,0.0,0.0,1.57542003E9,,,,0,3.0102999566398125,1,,1.57542003E9
Raw,435341209,1197028665000999936,18,114.66222509271053,295399,0.0,114.66222509271053,209.32477632428274,3.749324691733458,0,26,0.0,47,129464924392649,198,17.0,-499.6038818359375,0.1499999,0,0.0,0.0,1.57542003E9,,,,0,0.010299956639812535,1,,1.57542003E9
NMEA,$GPGSV,3,2,11,26,30,079,18.9,22,24,144,20.0,16,21,112,19.3,02,20,321,*67
,1512993447000
Fix,gps,55.983337,37.209977,211.200000,0.000000,7.500000,1512993447000
NMEA,$GPGSV,3,3,11,31,15,046,26.0,07,13,208,21.5,29,05,015,25.4*57
,1512993447000
NMEA,$GPRMC,115727.000,A,5559.0002,N,03712.5986,E,0.000,150.16,111217,,,A*54
,1512993447000
NMEA,$GPVTG,150.16,T,,M,0.000,N,0.000,K,A*3E
,1512993447000
NMEA,$GPACCURACY,7.5*0A
,1512993447000
NMEA,$PMTKAGC,115727.000,1140,1094,21,0*49
,1512993447000
Fix,gps,55.983337,37.209987,211.000000,0.000000,7.600000,1512993448000
Raw,435342166,1197028666000999936,18,117.77078532406117,295609,0.0,117.77078532406117,208.9510940447186,4.341470579414244,0,6,0.0,47,129465926755169,203,15.0,460.64471435546875,0.1499999,0,0.0,0.0,1.57542003E9,,,,0,0.0,1,,1.57542003E9
Raw,435342167,1197028666000999936,18,117.77078532406117,295609,0.0,117.77078532406117,208.9510940447186,4.341470579414244,0,7,0.0,47,14691,202,16.0,-3281.707763671875,0.1499999,0,0.0,0.0,1.57542003E9,,,,0,0.0,1,,1.57542003E9
Raw,435342169,1197028666000999936,18,117.77078532406117,295609,0.0,117.77078532406117,208.9510940447186,4.341470579414244,0,9,0.0,47,129465930711665,200,18.0,-1764.04443359375,0.1499999,0,0.0,0.0,1.57542003E9,,,,0,1.0102999566398125,1,,1.57542003E9
Raw,435342170,1197028666000999936,18,117.77078532406117,295609,0.0,117.77078532406117,208.9510940447186,4.341470579414244,0,23,0.0,47,129465932371305,198,20.0,177.27674865722656,0.1499999,0,0.0,0.0,1.57542003E9,,,,0,3.0102999566398125,1,,1.57542003E9
Raw,435342172,1197028666000999936,18,117.77078532406117,295609,0.0,117.77078532406117,208.9510940447186,4.341470579414244,0,26,0.0,47,129465924392961,203,15.0,-501.1414794921875,0.1499999,0,0.0,0.0,1.57542003E9,,,,0,0.0,1,,1.57542003E9
Raw,435342173,1197028666000999936,18,117.77078532406117,295609,0.0,117.77078532406117,208.9510940447186,4.341470579414244,0,29,0.0,2,7288,201,17.0,-1148.7779541015625,0.1499999,0,0.0,0.0,1.57542003E9,,,,0,0.010299956639812535,1,,1.57542003E9
NMEA,$GPGGA,115728.000,5559.0002,N,03712.5992,E,1,6,1.16,211.0,M,14.9,M,,*54
,1512993448000
NMEA,$GPGSA,A,3,29,26,23,09,06,07,,,,,,,1.41,1.16,0.81*0F
,1512993448000
NMEA,$PMTKGEPH,13,1,2,1,0,0,1,2,0,1,0,0,0,0,0,0,2,0,0,1,0,0,1,1,0,0,1,0,0,2,0,1,0*37
,1512993448000
NMEA,$PMTKGALM,31,1,1,1,0,1,1,1,1,1,1,1,1,1,1,1,1,1,1,1,1,1,1,1,1,1,1,1,1,1,1,1,1*2A
,1512993448000
NMEA,$GPGSV,3,1,11,23,87,178,19.1,09,53,262,11.6,03,44,148,,06,37,286,11.7*64
,1512993448000
NMEA,$GPGSV,3,2,11,26,30,079,11.6,22,24,144,11.9,16,21,112,11.2,02,20,321,*63
,1512993448000
NMEA,$GPGSV,3,3,11,31,15,046,13.5,07,13,208,12.5,29,05,015,13.8*5D
,1512993448000
NMEA,$GPRMC,115728.000,A,5559.0002,N,03712.5992,E,0.000,150.16,111217,,,A*5E
,1512993448000
NMEA,$GPVTG,150.16,T,,M,0.000,N,0.000,K,A*3E
,1512993448000
NMEA,$GPACCURACY,7.6*09
,1512993448000
NMEA,$PMTKAGC,115728.000,5120,4810,21,0*45
,1512993448000
NMEA,$GPGGA,115729.000,5559.0003,N,03712.5996,E,1,6,1.16,210.8,M,14.9,M,,*59
,1512993449000
NMEA,$GPGSA,A,3,29,26,23,09,06,07,,,,,,,1.41,1.16,0.81*0F
,1512993449000
Raw,435343150,1197028667000999936,18,119.26966313907377,295815,0.0,119.26966313907377,207.64276104722248,4.713805787396453,0,6,0.0,47,129466926754877,204,15.0,457.23114013671875,0.1499999,0,0.0,0.0,1.57542003E9,,,,0,0.0,1,,1.57542003E9
Raw,435343152,1197028667000999936,18,119.26966313907377,295815,0.0,119.26966313907377,207.64276104722248,4.713805787396453,0,7,0.0,47,16774,204,15.0,-3283.296142578125,0.1499999,0,0.0,0.0,1.57542003E9,,,,0,0.0,1,,1.57542003E9
Raw,435343153,1197028667000999936,18,119.26966313907377,295815,0.0,119.26966313907377,207.64276104722248,4.713805787396453,0,9,0.0,47,129466930712788,198,21.0,-1777.002197265625,0.1499999,0,0.0,0.0,1.57542003E9,,,,0,4.0102999566398125,1,,1.57542003E9
Raw,435343154,1197028667000999936,18,119.26966313907377,295815,0.0,119.26966313907377,207.64276104722248,4.713805787396453,0,26,0.0,47,129466924393279,203,16.0,-503.1553955078125,0.1499999,0,0.0,0.0,1.57542003E9,,,,0,0.0,1,,1.57542003E9
Raw,435343155,1197028667000999936,18,119.26966313907377,295815,0.0,119.26966313907377,207.64276104722248,4.713805787396453,0,29,0.0,2,8021,198,21.0,-1167.4520263671875,0.1499999,0,0.0,0.0,1.57542003E9,,,,0,4.0102999566398125,1,,1.57542003E9
NMEA,$PMTKGEPH,13,1,2,1,0,0,1,2,0,1,0,0,0,0,0,0,2,0,0,1,0,0,1,1,0,0,1,0,0,2,0,1,0*37
,1512993449000
NMEA,$PMTKGALM,31,1,1,1,0,1,1,1,1,1,1,1,1,1,1,1,1,1,1,1,1,1,1,1,1,1,1,1,1,1,1,1,1*2A
,1512993449000
Fix,gps,55.983338,37.209993,210.800000,0.000000,7.600000,1512993449000
NMEA,$GPGSV,3,1,11,23,87,178,21.4,09,53,262,11.6,03,44,148,,06,37,286,11.7*6A
,1512993449000
NMEA,$GPGSV,3,2,11,26,30,079,11.6,22,24,144,11.9,16,21,112,11.2,02,20,321,*63
,1512993449000
NMEA,$GPGSV,3,3,11,31,15,046,13.5,07,13,208,12.5,29,05,015,13.8*5D
,1512993449000
NMEA,$GPRMC,115729.000,A,5559.0003,N,03712.5996,E,0.000,150.16,111217,,,A*5A
,1512993449000
NMEA,$GPVTG,150.16,T,,M,0.000,N,0.000,K,A*3E
,1512993449000
NMEA,$GPACCURACY,7.6*09
,1512993449000
NMEA,$PMTKAGC,115729.000,3783,3765,21,0*47
,1512993449000
NMEA,$GPGGA,115730.000,5559.0005,N,03712.6000,E,1,6,1.30,210.6,M,14.9,M,,*58
,1512993450000
NMEA,$GPGSA,A,3,29,31,26,23,16,09,,,,,,,1.59,1.30,0.93*05
,1512993450000
Raw,435344168,1197028668000999936,18,125.33804738394167,296017,0.0,125.33804738394167,205.10704074682187,4.42389207885776,0,9,0.0,47,129467930713915,202,23.0,-1773.59228515625,0.1499999,0,0.0,0.0,1.57542003E9,,,,0,6.0102999566398125,1,,1.57542003E9
Raw,435344170,1197028668000999936,18,125.33804738394167,296017,0.0,125.33804738394167,205.10704074682187,4.42389207885776,0,16,0.0,47,62,203,22.0,-2565.337158203125,0.1499999,0,0.0,0.0,1.57542003E9,,,,0,4.041199826559247,1,,1.57542003E9
Raw,435344171,1197028668000999936,18,125.33804738394167,296017,0.0,125.33804738394167,205.10704074682187,4.42389207885776,0,26,0.0,47,129467924393582,207,18.0,-505.6385498046875,0.1499999,0,0.0,0.0,1.57542003E9,,,,0,1.0102999566398125,1,,1.57542003E9
Raw,435344173,1197028668000999936,18,125.33804738394167,296017,0.0,125.33804738394167,205.10704074682187,4.42389207885776,0,29,0.0,2,8764,204,21.0,-1169.2181396484375,0.1499999,0,0.0,0.0,1.57542003E9,,,,0,4.0102999566398125,1,,1.57542003E9
Raw,435344174,1197028668000999936,18,125.33804738394167,296017,0.0,125.33804738394167,205.10704074682187,4.42389207885776,0,31,0.0,47,129467919277472,203,22.0,3897.65625,0.1499999,0,0.0,0.0,1.57542003E9,,,,0,5.0102999566398125,1,,1.57542003E9
NMEA,$PMTKGEPH,13,1,2,1,0,0,1,2,0,1,0,0,0,0,0,0,2,0,0,1,0,0,1,1,0,0,1,0,0,2,0,1,0*37
,1512993450000
NMEA,$PMTKGALM,31,1,1,1,0,1,1,1,1,1,1,1,1,1,1,1,1,1,1,1,1,1,1,1,1,1,1,1,1,1,1,1,1*2A
,1512993450000
NMEA,$GPGSV,3,1,11,23,87,178,23.0,09,53,262,21.0,03,44,148,,06,37,286,9.8*5F
,1512993450000
NMEA,$GPGSV,3,2,11,26,30,079,13.5,22,24,144,16.8,16,21,112,14.0,02,20,321,*63
,1512993450000
Fix,gps,55.983342,37.210000,210.600000,0.000000,7.600000,1512993450000
NMEA,$GPGSV,3,3,11,31,15,046,19.9,07,13,208,12.3,29,05,015,13.8*5D
,1512993450000
NMEA,$GPRMC,115730.000,A,5559.0005,N,03712.6000,E,0.000,150.16,111217,,,A*51
,1512993450000
NMEA,$GPVTG,150.16,T,,M,0.000,N,0.000,K,A*3E
,1512993450000
NMEA,$GPACCURACY,7.6*09
,1512993450000
NMEA,$PMTKAGC,115730.000,7487,7633,21,0*4A
,1512993450000
Fix,gps,55.983345,37.210000,210.400000,0.000000,7.600000,1512993451000
Raw,435345195,1197028669000999936,18,123.987740368777,296219,0.0,123.987740368777,203.690163020565,4.4265956290573305,0,9,0.0,47,129468930715041,205,19.0,-1772.1845703125,0.1499999,0,0.0,0.0,1.57542003E9,,,,0,2.0102999566398125,1,,1.57542003E9
Raw,435345196,1197028669000999936,18,123.987740368777,296219,0.0,123.987740368777,203.690163020565,4.4265956290573305,0,16,0.0,47,691,204,20.0,-2565.718017578125,0.1499999,0,0.0,0.0,1.57542003E9,,,,0,2.0411998265592466,1,,1.57542003E9
Raw,435345198,1197028669000999936,18,123.987740368777,296219,0.0,123.987740368777,203.690163020565,4.4265956290573305,0,23,0.0,47,129468932370989,204,20.0,171.47071838378906,0.1499999,0,0.0,0.0,1.57542003E9,,,,0,3.0102999566398125,1,,1.57542003E9
Raw,435345200,1197028669000999936,18,123.987740368777,296219,0.0,123.987740368777,203.690163020565,4.4265956290573305,0,26,0.0,47,129468924393904,208,16.0,-506.8016357421875,0.1499999,0,0.0,0.0,1.57542003E9,,,,0,0.0,1,,1.57542003E9
Raw,435345202,1197028669000999936,18,123.987740368777,296219,0.0,123.987740368777,203.690163020565,4.4265956290573305,0,29,0.0,2,9507,205,19.0,-1165.0374755859375,0.1499999,0,0.0,0.0,1.57542003E9,,,,0,2.0102999566398125,1,,1.57542003E9
Raw,435345203,1197028669000999936,18,123.987740368777,296219,0.0,123.987740368777,203.690163020565,4.4265956290573305,0,31,0.0,47,129468919274997,204,20.0,3901.29443359375,0.1499999,0,0.0,0.0,1.57542003E9,,,,0,3.0102999566398125,1,,1.57542003E9
NMEA,$GPGGA,115731.000,5559.0007,N,03712.6000,E,1,6,1.30,210.4,M,14.9,M,,*59
,1512993451000
NMEA,$GPGSA,A,3,29,31,26,23,16,09,,,,,,,1.59,1.30,0.93*05
,1512993451000
NMEA,$PMTKGEPH,13,1,2,1,0,0,1,2,0,1,0,0,0,0,0,0,2,0,0,1,0,0,1,1,0,0,1,0,0,2,0,1,0*37
,1512993451000
NMEA,$PMTKGALM,31,1,1,1,0,1,1,1,1,1,1,1,1,1,1,1,1,1,1,1,1,1,1,1,1,1,1,1,1,1,1,1,1*2A
,1512993451000
NMEA,$GPGSV,3,1,11,23,87,178,22.6,09,53,262,21.0,03,44,148,,06,37,286,9.8*58
,1512993451000
NMEA,$GPGSV,3,2,11,26,30,079,13.5,22,24,144,16.8,16,21,112,14.0,02,20,321,*63
,1512993451000
NMEA,$GPGSV,3,3,11,31,15,046,19.9,07,13,208,12.3,29,05,015,18.2*5C
,1512993451000
NMEA,$GPRMC,115731.000,A,5559.0007,N,03712.6000,E,0.000,150.16,111217,,,A*52
,1512993451000
NMEA,$GPVTG,150.16,T,,M,0.000,N,0.000,K,A*3E
,1512993451000
NMEA,$GPACCURACY,7.6*09
,1512993451000
NMEA,$PMTKAGC,115731.000,3578,3758,21,0*46
,1512993451000
Fix,gps,55.983345,37.210000,210.200000,0.000000,7.600000,1512993452000
Raw,435346178,1197028670000999936,18,125.60769142467288,296421,0.0,125.60769142467288,202.89275116179886,4.3814035149623995,0,9,0.0,47,129469930716166,205,21.0,-1770.294921875,0.1499999,0,0.0,0.0,1.57542003E9,,,,0,4.0102999566398125,1,,1.57542003E9
Raw,435346180,1197028670000999936,18,125.60769142467288,296421,0.0,125.60769142467288,202.89275116179886,4.3814035149623995,0,16,0.0,47,325,207,19.0,-2567.073486328125,0.1499999,0,0.0,0.0,1.57542003E9,,,,0,1.0411998265592466,1,,1.57542003E9
Raw,435346181,1197028670000999936,18,125.60769142467288,296421,0.0,125.60769142467288,202.89275116179886,4.3814035149623995,0,23,0.0,47,129469932370878,204,22.0,177.24391174316406,0.1499999,0,0.0,0.0,1.57542003E9,,,,0,5.0102999566398125,1,,1.57542003E9
Raw,435346183,1197028670000999936,18,125.60769142467288,296421,0.0,125.60769142467288,202.89275116179886,4.3814035149623995,0,26,0.0,47,129469924394225,207,19.0,-506.6961669921875,0.1499999,0,0.0,0.0,1.57542003E9,,,,0,2.0102999566398125,1,,1.57542003E9
Raw,435346185,1197028670000999936,18,125.60769142467288,296421,0.0,125.60769142467288,202.89275116179886,4.3814035149623995,0,29,0.0,2,10246,206,20.0,-1162.0013427734375,0.1499999,0,0.0,0.0,1.57542003E9,,,,0,3.0102999566398125,1,,1.57542003E9
Raw,435346186,1197028670000999936,18,125.60769142467288,296421,0.0,125.60769142467288,202.89275116179886,4.3814035149623995,0,31,0.0,47,129469919272520,205,21.0,3902.54833984375,0.1499999,0,0.0,0.0,1.57542003E9,,,,0,4.0102999566398125,1,,1.57542003E9
NMEA,$GPGGA,115732.000,5559.0007,N,03712.6000,E,1,6,1.30,210.2,M,14.9,M,,*5C
,1512993452000
NMEA,$GPGSA,A,3,29,31,26,23,16,09,,,,,,,1.59,1.30,0.93*05
,1512993452000
NMEA,$PMTKGEPH,13,1,2,1,0,0,1,2,0,1,0,0,0,0,0,0,2,0,0,1,0,0,1,1,0,0,1,0,0,2,0,1,0*37
,1512993452000
NMEA,$PMTKGALM,31,1,1,1,0,1,1,1,1,1,1,1,1,1,1,1,1,1,1,1,1,1,1,1,1,1,1,1,1,1,1,1,1*2A
,1512993452000
NMEA,$GPGSV,3,1,11,23,87,178,22.4,09,53,262,21.0,03,43,148,,06,37,286,9.8*5D
,1512993452000
NMEA,$GPGSV,3,2,11,26,30,079,13.5,22,24,144,16.8,16,21,112,17.9,02,20,321,*69
,1512993452000
NMEA,$GPGSV,3,3,11,31,15,046,19.9,07,13,208,12.3,29,05,015,18.2*5C
,1512993452000
NMEA,$GPRMC,115732.000,A,5559.0007,N,03712.6000,E,0.000,150.16,111217,,,A*51
,1512993452000
NMEA,$GPVTG,150.16,T,,M,0.000,N,0.000,K,A*3E
,1512993452000
NMEA,$GPACCURACY,7.6*09
,1512993452000
NMEA,$PMTKAGC,115732.000,2230,2292,21,0*4D
,1512993452000
NMEA,$GPGGA,115733.000,5559.0008,N,03712.5998,E,1,7,1.11,210.1,M,14.9,M,,*58
,1512993453000
NMEA,$GPGSA,A,3,29,31,26,23,16,22,09,,,,,,1.42,1.11,0.88*06
,1512993453000
NMEA,$PMTKGEPH,13,1,2,1,0,0,1,2,0,1,0,0,0,0,0,0,2,0,0,1,0,0,1,1,0,0,1,0,0,2,0,1,0*37
,1512993453000
NMEA,$PMTKGALM,31,1,1,1,0,1,1,1,1,1,1,1,1,1,1,1,1,1,1,1,1,1,1,1,1,1,1,1,1,1,1,1,1*2A
,1512993453000
Raw,435347161,1197028671000999936,18,138.96418851675736,296621,0.0,138.96418851675736,201.9145413153405,4.217295353664543,0,9,0.0,47,129470930717308,219,20.0,-1769.728271484375,0.1499999,0,0.0,0.0,1.57542003E9,,,,0,3.0102999566398125,1,,1.57542003E9
Raw,435347162,1197028671000999936,18,138.96418851675736,296621,0.0,138.96418851675736,201.9145413153405,4.217295353664543,0,16,0.0,47,956,221,18.0,-2570.601806640625,0.1499999,0,0.0,0.0,1.57542003E9,,,,0,0.04119982655924659,1,,1.57542003E9
Raw,435347163,1197028671000999936,18,138.96418851675736,296621,0.0,138.96418851675736,201.9145413153405,4.217295353664543,0,22,0.0,47,129470922381808,223,16.0,3704.31591796875,0.1499999,0,0.0,0.0,1.57542003E9,,,,0,0.0,1,,1.57542003E9
Raw,435347164,1197028671000999936,18,138.96418851675736,296621,0.0,138.96418851675736,201.9145413153405,4.217295353664543,0,23,0.0,47,129470932370763,218,21.0,174.46022033691406,0.1499999,0,0.0,0.0,1.57542003E9,,,,0,4.0102999566398125,1,,1.57542003E9
Raw,435347166,1197028671000999936,18,138.96418851675736,296621,0.0,138.96418851675736,201.9145413153405,4.217295353664543,0,26,0.0,47,129470924394545,222,17.0,-506.4937744140625,0.1499999,0,0.0,0.0,1.57542003E9,,,,0,0.010299956639812535,1,,1.57542003E9
Raw,435347179,1197028671000999936,18,138.96418851675736,296621,0.0,138.96418851675736,201.9145413153405,4.217295353664543,0,29,0.0,2,10991,219,20.0,-1158.9249267578125,0.1499999,0,0.0,0.0,1.57542003E9,,,,0,3.0102999566398125,1,,1.57542003E9
Raw,435347180,1197028671000999936,18,138.96418851675736,296621,0.0,138.96418851675736,201.9145413153405,4.217295353664543,0,31,0.0,47,129470919270042,220,19.0,3903.89794921875,0.1499999,0,0.0,0.0,1.57542003E9,,,,0,2.0102999566398125,1,,1.57542003E9
NMEA,$GPGSV,3,1,11,23,87,178,21.6,09,53,262,20.0,03,43,148,,06,37,286,10.9*64
,1512993453000
NMEA,$GPGSV,3,2,11,26,30,079,14.1,22,24,144,13.0,16,21,112,17.9,02,20,321,*67
,1512993453000
NMEA,$GPGSV,3,3,11,31,15,046,19.5,07,13,208,12.5,29,05,015,17.0*5B
,1512993453000
NMEA,$GPRMC,115733.000,A,5559.0008,N,03712.5998,E,0.000,150.16,111217,,,A*54
,1512993453000
Fix,gps,55.983347,37.209997,210.100000,0.000000,7.600000,1512993453000
NMEA,$GPVTG,150.16,T,,M,0.000,N,0.000,K,A*3E
,1512993453000
NMEA,$GPACCURACY,7.6*09
,1512993453000
NMEA,$PMTKAGC,115733.000,234,305,21,0*47
,1512993453000
Raw,435348172,1197028672000999936,18,126.70943883002002,296821,0.0,126.70943883002002,201.2653475610309,3.86613682893404,0,9,0.0,47,129471930718431,205,22.0,-1767.19482421875,0.1499999,0,0.0,0.0,1.57542003E9,,,,0,5.0102999566398125,1,,1.57542003E9
Raw,435348173,1197028672000999936,18,126.70943883002002,296821,0.0,126.70943883002002,201.2653475610309,3.86613682893404,0,16,0.0,47,562,205,22.0,-2568.312744140625,0.1499999,0,0.0,0.0,1.57542003E9,,,,0,4.041199826559247,1,,1.57542003E9
Raw,435348175,1197028672000999936,18,126.70943883002002,296821,0.0,126.70943883002002,201.2653475610309,3.86613682893404,0,22,0.0,47,129471922379456,209,18.0,3703.468994140625,0.1499999,0,0.0,0.0,1.57542003E9,,,,0,1.0102999566398125,1,,1.57542003E9
Raw,435348176,1197028672000999936,18,126.70943883002002,296821,0.0,126.70943883002002,201.2653475610309,3.86613682893404,0,23,0.0,47,129471932370673,199,28.0,177.40065002441406,0.1499999,0,0.0,0.0,1.57542003E9,,,,0,11.010299956639813,1,,1.57542003E9
Raw,435348178,1197028672000999936,18,126.70943883002002,296821,0.0,126.70943883002002,201.2653475610309,3.86613682893404,0,26,0.0,47,129471924394866,208,19.0,-505.5086669921875,0.1499999,0,0.0,0.0,1.57542003E9,,,,0,2.0102999566398125,1,,1.57542003E9
Raw,435348182,1197028672000999936,18,126.70943883002002,296821,0.0,126.70943883002002,201.2653475610309,3.86613682893404,0,29,0.0,2,11726,205,22.0,-1158.5382080078125,0.1499999,0,0.0,0.0,1.57542003E9,,,,0,5.0102999566398125,1,,1.57542003E9
Raw,435348183,1197028672000999936,18,126.70943883002002,296821,0.0,126.70943883002002,201.2653475610309,3.86613682893404,0,31,0.0,47,129471919267564,205,22.0,3904.03564453125,0.1499999,0,0.0,0.0,1.57542003E9,,,,0,5.0102999566398125,1,,1.57542003E9
Fix,gps,55.983347,37.209988,209.900000,0.000000,7.600000,1512993454000
NMEA,$GPGGA,115734.000,5559.0008,N,03712.5993,E,1,7,1.11,209.9,M,14.9,M,,*54
,1512993454000
NMEA,$GPGSA,A,3,29,31,26,23,16,22,09,,,,,,1.42,1.11,0.88*06
,1512993454000
NMEA,$PMTKGEPH,13,1,2,1,0,0,1,2,0,1,0,0,0,0,0,0,2,0,0,1,0,0,1,1,0,0,1,0,0,2,0,1,0*37
,1512993454000
NMEA,$PMTKGALM,31,1,1,1,0,1,1,1,1,1,1,1,1,1,1,1,1,1,1,1,1,1,1,1,1,1,1,1,1,1,1,1,1*2A
,1512993454000
NMEA,$GPGSV,3,1,11,23,87,178,25.3,09,53,262,19.3,03,43,148,,06,37,286,10.9*6C
,1512993454000
NMEA,$GPGSV,3,2,11,26,30,079,14.1,22,24,144,13.0,16,21,112,17.7,02,20,321,*69
,1512993454000
NMEA,$GPGSV,3,3,11,31,15,046,19.2,07,13,208,12.5,29,05,015,16.3*5E
,1512993454000
NMEA,$GPRMC,115734.000,A,5559.0008,N,03712.5993,E,0.000,150.16,111217,,,A*58
,1512993454000
NMEA,$GPVTG,150.16,T,,M,0.000,N,0.000,K,A*3E
,1512993454000
NMEA,$GPACCURACY,7.6*09
,1512993454000
NMEA,$PMTKAGC,115734.000,9048,9254,21,0*4C
,1512993454000
NMEA,$GPGGA,115735.000,5559.0010,N,03712.5985,E,1,7,1.11,210.0,M,14.9,M,,*5A
,1512993455000
Raw,435349219,1197028673000999936,18,111.73136195110608,297024,0.0,111.73136195110608,202.26067193950306,3.212871977927773,0,9,0.0,47,129472930719552,182,30.0,-1762.508056640625,0.1499999,0,0.0,0.0,1.57542003E9,,,,0,13.010299956639813,1,,1.57542003E9
Raw,435349220,1197028673000999936,18,111.73136195110608,297024,0.0,111.73136195110608,202.26067193950306,3.212871977927773,0,16,0.0,47,177,185,27.0,-2563.092041015625,0.1499999,0,0.0,0.0,1.57542003E9,,,,0,9.041199826559247,1,,1.57542003E9
Raw,435349221,1197028673000999936,18,111.73136195110608,297024,0.0,111.73136195110608,202.26067193950306,3.212871977927773,0,22,0.0,47,129472922377106,192,20.0,3701.142333984375,0.1499999,0,0.0,0.0,1.57542003E9,,,,0,3.0102999566398125,1,,1.57542003E9
Raw,435349222,1197028673000999936,18,111.73136195110608,297024,0.0,111.73136195110608,202.26067193950306,3.212871977927773,0,23,0.0,47,129472932370559,180,32.0,185.11083984375,0.1499999,0,0.0,0.0,1.57542003E9,,,,0,15.010299956639813,1,,1.57542003E9
Raw,435349224,1197028673000999936,18,111.73136195110608,297024,0.0,111.73136195110608,202.26067193950306,3.212871977927773,0,26,0.0,47,129472924395186,189,23.0,-504.0023193359375,0.1499999,0,0.0,0.0,1.57542003E9,,,,0,6.0102999566398125,1,,1.57542003E9
Raw,435349225,1197028673000999936,18,111.73136195110608,297024,0.0,111.73136195110608,202.26067193950306,3.212871977927773,0,29,0.0,2,12460,182,30.0,-1152.9891357421875,0.1499999,0,0.0,0.0,1.57542003E9,,,,0,13.010299956639813,1,,1.57542003E9
Raw,435349226,1197028673000999936,18,111.73136195110608,297024,0.0,111.73136195110608,202.26067193950306,3.212871977927773,0,31,0.0,47,129472919265086,185,27.0,3906.984130859375,0.1499999,0,0.0,0.0,1.57542003E9,,,,0,10.010299956639813,1,,1.57542003E9
Fix,gps,55.983350,37.209975,210.000000,0.000000,7.600000,1512993455000
NMEA,$GPGSA,A,3,29,31,26,23,16,22,09,,,,,,1.42,1.11,0.88*06
,1512993455000
NMEA,$PMTKGEPH,13,1,2,1,0,0,1,2,0,1,0,0,0,0,0,0,2,0,0,1,0,0,1,1,0,0,1,0,0,2,0,1,0*37
,1512993455000
NMEA,$PMTKGALM,31,1,1,1,0,1,1,1,1,1,1,1,1,1,1,1,1,1,1,1,1,1,1,1,1,1,1,1,1,1,1,1,1*2A
,1512993455000
NMEA,$GPGSV,3,1,12,23,87,178,25.3,09,53,262,18.0,03,43,148,,06,37,285,10.9*6E
,1512993455000
NMEA,$GPGSV,3,2,12,26,30,079,14.1,22,24,144,13.0,16,21,112,24.0,02,20,321,*6D
,1512993455000
NMEA,$GPGSV,3,3,12,31,15,046,18.6,07,13,208,12.5,29,05,015,14.8,43,,,*56
,1512993455000
NMEA,$GPRMC,115735.000,A,5559.0010,N,03712.5985,E,0.000,150.16,111217,,,A*57
,1512993455000
NMEA,$GPVTG,150.16,T,,M,0.000,N,0.000,K,A*3E
,1512993455000
NMEA,$GPACCURACY,7.6*09
,1512993455000
NMEA,$PMTKAGC,115735.000,1102,1053,21,0*47
,1512993455000
Fix,gps,55.983385,37.209968,209.900000,0.000000,7.600000,1512993456000
NMEA,$GPGGA,115736.000,5559.0031,N,03712.5981,E,1,9,0.83,209.9,M,14.9,M,,*5B
,1512993456000
Raw,435350223,1197028674000999936,18,106.12347592878842,297223,0.0,106.12347592878842,202.29401640558024,3.175495267185904,0,6,0.0,47,129473926752832,183,23.0,461.13397216796875,0.1499999,0,0.0,0.0,1.57542003E9,,,,0,6.0102999566398125,1,,1.57542003E9
Raw,435350224,1197028674000999936,18,106.12347592878842,297223,0.0,106.12347592878842,202.29401640558024,3.175495267185904,0,7,0.0,47,11367,184,22.0,-3290.528564453125,0.1499999,0,0.0,0.0,1.57542003E9,,,,0,5.0102999566398125,1,,1.57542003E9
Raw,435350226,1197028674000999936,18,106.12347592878842,297223,0.0,106.12347592878842,202.29401640558024,3.175495267185904,0,9,0.0,47,129473930720657,183,23.0,-1764.5291748046875,0.1499999,0,0.0,0.0,1.57542003E9,,,,0,6.0102999566398125,1,,1.57542003E9
Raw,435350228,1197028674000999936,18,106.12347592878842,297223,0.0,106.12347592878842,202.29401640558024,3.175495267185904,0,22,0.0,47,129473922374745,189,17.0,3701.023681640625,0.1499999,0,0.0,0.0,1.57542003E9,,,,0,0.010299956639812535,1,,1.57542003E9
Raw,435350229,1197028674000999936,18,106.12347592878842,297223,0.0,106.12347592878842,202.29401640558024,3.175495267185904,0,23,0.0,47,129473932370455,177,29.0,182.57754516601562,0.1499999,0,0.0,0.0,1.57542003E9,,,,0,12.010299956639813,1,,1.57542003E9
Raw,435350231,1197028674000999936,18,106.12347592878842,297223,0.0,106.12347592878842,202.29401640558024,3.175495267185904,0,26,0.0,47,129473924395501,185,21.0,-499.8568115234375,0.1499999,0,0.0,0.0,1.57542003E9,,,,0,4.0102999566398125,1,,1.57542003E9
Raw,435350234,1197028674000999936,18,106.12347592878842,297223,0.0,106.12347592878842,202.29401640558024,3.175495267185904,0,29,0.0,2,13218,180,26.0,-1150.94921875,0.1499999,0,0.0,0.0,1.57542003E9,,,,0,9.010299956639813,1,,1.57542003E9
Raw,435350236,1197028674000999936,18,106.12347592878842,297223,0.0,106.12347592878842,202.29401640558024,3.175495267185904,0,31,0.0,47,129473919262638,181,25.0,3911.887451171875,0.1499999,0,0.0,0.0,1.57542003E9,,,,0,8.010299956639813,1,,1.57542003E9
NMEA,$GPGSA,A,3,29,31,26,23,16,22,09,06,07,,,,1.15,0.83,0.80*07
,1512993456000
NMEA,$PMTKGEPH,13,1,2,1,0,0,1,2,0,1,0,0,0,0,0,0,2,0,0,1,0,0,1,1,0,0,1,0,0,2,0,1,0*37
,1512993456000
NMEA,$PMTKGALM,31,1,1,1,0,1,1,1,1,1,1,1,1,1,1,1,1,1,1,1,1,1,1,1,1,1,1,1,1,1,1,1,1*2A
,1512993456000
NMEA,$GPGSV,3,1,12,23,87,178,26.1,09,53,262,20.2,03,43,148,,06,37,285,19.2*64
,1512993456000
NMEA,$GPGSV,3,2,12,26,30,079,20.3,22,24,144,16.2,16,21,112,23.9,02,20,321,*61
,1512993456000
NMEA,$GPGSV,3,3,12,31,15,046,24.8,07,14,208,20.1,29,05,015,25.6,43,,,*59
,1512993456000
NMEA,$GPRMC,115736.000,A,5559.0031,N,03712.5981,E,0.000,150.16,111217,,,A*53
,1512993456000
NMEA,$GPVTG,150.16,T,,M,0.000,N,0.000,K,A*3E
,1512993456000
NMEA,$GPACCURACY,7.6*09
,1512993456000
NMEA,$PMTKAGC,115736.000,4144,4205,21,0*47
,1512993456000
NMEA,$GPGGA,115737.000,5559.0036,N,03712.5946,E,1,9,0.83,209.7,M,14.9,M,,*58
,1512993457000
NMEA,$GPGSA,A,3,29,31,26,23,16,22,09,06,07,,,,1.15,0.83,0.80*07
,1512993457000
NMEA,$PMTKGEPH,13,1,2,1,0,0,1,2,0,1,0,0,0,0,0,0,2,0,0,1,0,0,1,1,0,0,1,0,0,2,0,1,0*37
,1512993457000
Raw,435351199,1197028675000999936,18,105.20708573835947,297423,0.0,105.20708573835947,201.92818218155486,3.1611440640306285,0,6,0.0,47,129474926752569,187,18.0,459.25872802734375,0.1499999,0,0.0,0.0,1.57542003E9,,,,0,1.0102999566398125,1,,1.57542003E9
Raw,435351201,1197028675000999936,18,105.20708573835947,297423,0.0,105.20708573835947,201.92818218155486,3.1611440640306285,0,7,0.0,47,13457,182,23.0,-3294.694091796875,0.1499999,0,0.0,0.0,1.57542003E9,,,,0,6.0102999566398125,1,,1.57542003E9
Raw,435351203,1197028675000999936,18,105.20708573835947,297423,0.0,105.20708573835947,201.92818218155486,3.1611440640306285,0,9,0.0,47,129474930721778,183,22.0,-1764.4996337890625,0.1499999,0,0.0,0.0,1.57542003E9,,,,0,5.0102999566398125,1,,1.57542003E9
Raw,435351205,1197028675000999936,18,105.20708573835947,297423,0.0,105.20708573835947,201.92818218155486,3.1611440640306285,0,22,0.0,47,129474922372395,187,18.0,3699.69873046875,0.1499999,0,0.0,0.0,1.57542003E9,,,,0,1.0102999566398125,1,,1.57542003E9
Raw,435351206,1197028675000999936,18,105.20708573835947,297423,0.0,105.20708573835947,201.92818218155486,3.1611440640306285,0,26,0.0,47,129474924395818,182,23.0,-498.3092041015625,0.1499999,0,0.0,0.0,1.57542003E9,,,,0,6.0102999566398125,1,,1.57542003E9
Raw,435351208,1197028675000999936,18,105.20708573835947,297423,0.0,105.20708573835947,201.92818218155486,3.1611440640306285,0,29,0.0,2,13947,179,26.0,-1150.6578369140625,0.1499999,0,0.0,0.0,1.57542003E9,,,,0,9.010299956639813,1,,1.57542003E9
Raw,435351209,1197028675000999936,18,105.20708573835947,297423,0.0,105.20708573835947,201.92818218155486,3.1611440640306285,0,31,0.0,47,129474919260155,181,24.0,3905.197021484375,0.1499999,0,0.0,0.0,1.57542003E9,,,,0,7.0102999566398125,1,,1.57542003E9
NMEA,$PMTKGALM,31,1,1,1,0,1,1,1,1,1,1,1,1,1,1,1,1,1,1,1,1,1,1,1,1,1,1,1,1,1,1,1,1*2A
,1512993457000
NMEA,$GPGSV,3,1,12,23,87,178,27.1,09,53,262,21.7,03,43,148,,06,37,285,18.3*61
,1512993457000
NMEA,$GPGSV,3,2,12,26,30,079,20.3,22,24,144,16.2,16,21,112,23.9,02,20,321,*61
,1512993457000
NMEA,$GPGSV,3,3,12,31,15,046,24.8,07,14,208,20.1,29,05,015,25.6,43,,,*59
,1512993457000
NMEA,$GPRMC,115737.000,A,5559.0036,N,03712.5946,E,0.000,150.16,111217,,,A*5E
,1512993457000
NMEA,$GPVTG,150.16,T,,M,0.000,N,0.000,K,A*3E
,1512993457000
Fix,gps,55.983393,37.209910,209.700000,0.000000,7.500000,1512993457000
NMEA,$GPACCURACY,7.5*0A
,1512993457000
NMEA,$PMTKAGC,115737.000,1844,1849,21,0*4D
,1512993457000
NMEA,$GPGGA,115738.000,5559.0037,N,03712.5940,E,1,9,0.83,209.7,M,14.9,M,,*50
,1512993458000
NMEA,$GPGSA,A,3,29,31,26,23,16,22,09,06,07,,,,1.15,0.83,0.80*07
,1512993458000
NMEA,$PMTKGEPH,13,1,2,1,0,0,1,2,0,1,0,0,0,0,0,0,2,0,0,1,0,0,1,1,0,0,1,0,0,2,0,1,0*37
,1512993458000
NMEA,$PMTKGALM,31,1,1,1,0,1,1,1,1,1,1,1,1,1,1,1,1,1,1,1,1,1,1,1,1,1,1,1,1,1,1,1,1*2A
,1512993458000
Raw,435352158,1197028676000999936,18,105.63245808792409,297625,0.0,105.63245808792409,201.73131785116198,3.1308739644325647,0,6,0.0,47,129475926752277,186,20.0,458.18743896484375,0.1499999,0,0.0,0.0,1.57542003E9,,,,0,3.0102999566398125,1,,1.57542003E9
Raw,435352160,1197028676000999936,18,105.63245808792409,297625,0.0,105.63245808792409,201.73131785116198,3.1308739644325647,0,7,0.0,47,15566,187,19.0,-3297.805908203125,0.1499999,0,0.0,0.0,1.57542003E9,,,,0,2.0102999566398125,1,,1.57542003E9
Raw,435352162,1197028676000999936,18,105.63245808792409,297625,0.0,105.63245808792409,201.73131785116198,3.1308739644325647,0,9,0.0,47,129475930722895,183,23.0,-1764.3465576171875,0.1499999,0,0.0,0.0,1.57542003E9,,,,0,6.0102999566398125,1,,1.57542003E9
Raw,435352164,1197028676000999936,18,105.63245808792409,297625,0.0,105.63245808792409,201.73131785116198,3.1308739644325647,0,16,0.0,47,4032,186,20.0,-2562.57568359375,0.1499999,0,0.0,0.0,1.57542003E9,,,,0,3.0102999566398125,1,,1.57542003E9
Raw,435352165,1197028676000999936,18,105.63245808792409,297625,0.0,105.63245808792409,201.73131785116198,3.1308739644325647,0,22,0.0,47,129475922370048,186,20.0,3697.142333984375,0.1499999,0,0.0,0.0,1.57542003E9,,,,0,3.0102999566398125,1,,1.57542003E9
Raw,435352166,1197028676000999936,18,105.63245808792409,297625,0.0,105.63245808792409,201.73131785116198,3.1308739644325647,0,26,0.0,47,129475924396109,186,20.0,-499.5880126953125,0.1499999,0,0.0,0.0,1.57542003E9,,,,0,3.0102999566398125,1,,1.57542003E9
Raw,435352168,1197028676000999936,18,105.63245808792409,297625,0.0,105.63245808792409,201.73131785116198,3.1308739644325647,0,29,0.0,2,14673,185,21.0,-1151.2978515625,0.1499999,0,0.0,0.0,1.57542003E9,,,,0,4.0102999566398125,1,,1.57542003E9
Raw,435352169,1197028676000999936,18,105.63245808792409,297625,0.0,105.63245808792409,201.73131785116198,3.1308739644325647,0,31,0.0,47,129475919257706,179,27.0,3903.935546875,0.1499999,0,0.0,0.0,1.57542003E9,,,,0,10.010299956639813,1,,1.57542003E9
NMEA,$GPGSV,3,1,12,23,87,178,27.8,09,54,263,20.6,03,43,148,,06,37,285,18.3*6E
,1512993458000
Fix,gps,55.983395,37.209900,209.700000,0.000000,7.500000,1512993458000
NMEA,$GPGSV,3,2,12,26,30,079,19.0,22,24,144,13.1,16,21,112,23.6,02,20,321,*61
,1512993458000
NMEA,$GPGSV,3,3,12,31,15,046,23.4,07,14,208,19.1,29,05,015,24.3,43,,,*5C
,1512993458000
NMEA,$GPRMC,115738.000,A,5559.0037,N,03712.5940,E,0.000,150.16,111217,,,A*56
,1512993458000
NMEA,$GPVTG,150.16,T,,M,0.000,N,0.000,K,A*3E
,1512993458000
NMEA,$GPACCURACY,7.5*0A
,1512993458000
NMEA,$PMTKAGC,115738.000,2106,1882,21,0*49
,1512993458000
NMEA,$GPGGA,115739.000,5559.0037,N,03712.5940,E,1,9,0.83,209.7,M,14.9,M,,*51
,1512993459000
NMEA,$GPGSA,A,3,29,31,26,23,16,22,09,06,07,,,,1.15,0.83,0.80*07
,1512993459000
NMEA,$PMTKGEPH,13,1,2,1,0,0,1,2,0,1,0,0,0,0,0,0,2,0,0,1,0,0,1,1,0,0,1,0,0,2,0,1,0*37
,1512993459000
NMEA,$PMTKGALM,31,1,1,1,0,1,1,1,1,1,1,1,1,1,1,1,1,1,1,1,1,1,1,1,1,1,1,1,1,1,1,1,1*2A
,1512993459000
NMEA,$GPGSV,3,1,12,23,87,178,26.3,09,54,263,28.2,03,43,148,28.1,06,37,285,26.0*73
,1512993459000
Raw,435353188,1197028677000999936,18,102.46671413145212,297824,0.0,102.46671413145212,201.5931555778732,3.0645986123421265,0,6,0.0,47,129476926751998,177,25.0,463.17694091796875,0.1499999,0,0.0,0.0,1.57542003E9,,,,0,8.010299956639813,1,,1.57542003E9
Raw,435353190,1197028677000999936,18,102.46671413145212,297824,0.0,102.46671413145212,201.5931555778732,3.0645986123421265,0,7,0.0,47,17660,186,16.0,-3299.191162109375,0.1499999,0,0.0,0.0,1.57542003E9,,,,0,0.0,1,,1.57542003E9
Raw,435353192,1197028677000999936,18,102.46671413145212,297824,0.0,102.46671413145212,201.5931555778732,3.0645986123421265,0,16,0.0,47,5658,181,21.0,-2561.020263671875,0.1499999,0,0.0,0.0,1.57542003E9,,,,0,4.0102999566398125,1,,1.57542003E9
Raw,435353194,1197028677000999936,18,102.46671413145212,297824,0.0,102.46671413145212,201.5931555778732,3.0645986123421265,0,22,0.0,47,129476922367701,183,19.0,3696.284912109375,0.1499999,0,0.0,0.0,1.57542003E9,,,,0,2.0102999566398125,1,,1.57542003E9
Raw,435353196,1197028677000999936,18,102.46671413145212,297824,0.0,102.46671413145212,201.5931555778732,3.0645986123421265,0,23,0.0,47,129476932370058,179,23.0,181.56002807617188,0.1499999,0,0.0,0.0,1.57542003E9,,,,0,6.0102999566398125,1,,1.57542003E9
Raw,435353200,1197028677000999936,18,102.46671413145212,297824,0.0,102.46671413145212,201.5931555778732,3.0645986123421265,0,26,0.0,47,129476924396430,177,25.0,-498.9122619628906,0.1499999,0,0.0,0.0,1.57542003E9,,,,0,8.010299956639813,1,,1.57542003E9
Raw,435353202,1197028677000999936,18,102.46671413145212,297824,0.0,102.46671413145212,201.5931555778732,3.0645986123421265,0,29,0.0,2,15404,180,22.0,-1150.903564453125,0.1499999,0,0.0,0.0,1.57542003E9,,,,0,5.0102999566398125,1,,1.57542003E9
NMEA,$GPGSV,3,2,12,26,30,079,25.0,22,24,144,13.1,16,21,112,23.4,02,20,321,*6C
,1512993459000
NMEA,$GPGSV,3,3,12,31,15,046,24.1,07,14,208,18.4,29,05,015,23.5,43,,,*5B
,1512993459000
Fix,gps,55.983395,37.209900,209.700000,0.000000,7.500000,1512993459000
NMEA,$GPRMC,115739.000,A,5559.0037,N,03712.5940,E,0.000,150.16,111217,,,A*57
,1512993459000
NMEA,$GPVTG,150.16,T,,M,0.000,N,0.000,K,A*3E
,1512993459000
NMEA,$GPACCURACY,7.5*0A
,1512993459000
NMEA,$PMTKAGC,115739.000,5841,6109,21,0*48
,1512993459000
Fix,gps,55.983395,37.209900,209.700000,0.000000,7.500000,1512993460000
NMEA,$GPGGA,115740.000,5559.0037,N,03712.5940,E,1,9,0.83,209.7,M,14.9,M,,*5F
,1512993460000
NMEA,$GPGSA,A,3,29,31,26,23,16,22,09,06,07,,,,1.15,0.83,0.80*07
,1512993460000
Raw,435354231,1197028678000999936,18,104.75840853953814,298025,0.0,104.75840853953814,200.8516375642149,3.108045089523377,0,6,0.0,47,129477926751705,181,24.0,460.10345458984375,0.1499999,0,0.0,0.0,1.57542003E9,,,,0,7.0102999566398125,1,,1.57542003E9
Raw,435354233,1197028678000999936,18,104.75840853953814,298025,0.0,104.75840853953814,200.8516375642149,3.108045089523377,0,7,0.0,47,19754,192,13.0,-3299.18212890625,0.1499999,0,0.0,0.0,1.57542003E9,,,,0,0.0,1,,1.57542003E9
Raw,435354234,1197028678000999936,18,104.75840853953814,298025,0.0,104.75840853953814,200.8516375642149,3.108045089523377,0,16,0.0,47,7294,184,21.0,-2563.68896484375,0.1499999,0,0.0,0.0,1.57542003E9,,,,0,4.0102999566398125,1,,1.57542003E9
Raw,435354236,1197028678000999936,18,104.75840853953814,298025,0.0,104.75840853953814,200.8516375642149,3.108045089523377,0,22,0.0,47,129477922365356,187,18.0,3694.6904296875,0.1499999,0,0.0,0.0,1.57542003E9,,,,0,1.0102999566398125,1,,1.57542003E9
Raw,435354237,1197028678000999936,18,104.75840853953814,298025,0.0,104.75840853953814,200.8516375642149,3.108045089523377,0,23,0.0,47,129477932369944,183,22.0,177.39083862304688,0.1499999,0,0.0,0.0,1.57542003E9,,,,0,5.0102999566398125,1,,1.57542003E9
Raw,435354239,1197028678000999936,18,104.75840853953814,298025,0.0,104.75840853953814,200.8516375642149,3.108045089523377,0,26,0.0,47,129477924396746,181,24.0,-501.3959045410156,0.1499999,0,0.0,0.0,1.57542003E9,,,,0,7.0102999566398125,1,,1.57542003E9
Raw,435354240,1197028678000999936,18,104.75840853953814,298025,0.0,104.75840853953814,200.8516375642149,3.108045089523377,0,29,0.0,2,16112,184,21.0,-1154.18310546875,0.1499999,0,0.0,0.0,1.57542003E9,,,,0,4.0102999566398125,1,,1.57542003E9
NMEA,$PMTKGEPH,13,1,2,1,0,0,1,2,0,1,0,0,0,0,0,0,2,0,0,1,0,0,1,1,0,0,1,0,0,2,0,1,0*37
,1512993460000
NMEA,$PMTKGALM,31,1,1,1,0,1,1,1,1,1,1,1,1,1,1,1,1,1,1,1,1,1,1,1,1,1,1,1,1,1,1,1,1*2A
,1512993460000
NMEA,$GPGSV,3,1,12,23,87,178,25.3,09,54,263,28.2,03,43,148,28.1,06,37,285,26.0*70
,1512993460000
NMEA,$GPGSV,3,2,12,26,30,079,25.0,22,24,144,13.1,16,21,112,22.2,02,20,321,*6B
,1512993460000
NMEA,$GPGSV,3,3,12,31,15,046,24.6,07,14,208,18.0,29,05,015,22.5,43,,,*59
,1512993460000
NMEA,$GPRMC,115740.000,A,5559.0037,N,03712.5940,E,0.000,150.16,111217,,,A*59
,1512993460000
NMEA,$GPVTG,150.16,T,,M,0.000,N,0.000,K,A*3E
,1512993460000
NMEA,$GPACCURACY,7.5*0A
,1512993460000
NMEA,$PMTKAGC,115740.000,1836,1731,21,0*48
,1512993460000
NMEA,$GPGGA,115741.000,5559.0037,N,03712.5940,E,1,9,0.92,209.7,M,14.9,M,,*5E
,1512993461000
NMEA,$GPGSA,A,3,29,31,26,23,16,22,03,09,06,,,,1.27,0.92,0.87*05
,1512993461000
NMEA,$PMTKGEPH,13,1,2,1,0,0,1,2,0,1,0,0,0,0,0,0,2,0,0,1,0,0,1,1,0,0,1,0,0,2,0,1,0*37
,1512993461000
NMEA,$PMTKGALM,31,1,1,1,0,1,1,1,1,1,1,1,1,1,1,1,1,1,1,1,1,1,1,1,1,1,1,1,1,1,1,1,1*2A
,1512993461000
Raw,435355159,1197028679000999936,18,111.59821319728552,298225,0.0,111.59821319728552,200.0416589244996,3.3621424242790354,0,3,0.0,47,129478927986027,193,19.0,3140.3095703125,0.1499999,0,0.0,0.0,1.57542003E9,,,,0,2.0102999566398125,1,,1.57542003E9
Raw,435355160,1197028679000999936,18,111.59821319728552,298225,0.0,111.59821319728552,200.0416589244996,3.3621424242790354,0,6,0.0,47,129478926751409,194,18.0,456.81597900390625,0.1499999,0,0.0,0.0,1.57542003E9,,,,0,1.0102999566398125,1,,1.57542003E9
Raw,435355162,1197028679000999936,18,111.59821319728552,298225,0.0,111.59821319728552,200.0416589244996,3.3621424242790354,0,9,0.0,47,129478930726273,190,22.0,-1773.125244140625,0.1499999,0,0.0,0.0,1.57542003E9,,,,0,5.0102999566398125,1,,1.57542003E9
Raw,435355163,1197028679000999936,18,111.59821319728552,298225,0.0,111.59821319728552,200.0416589244996,3.3621424242790354,0,16,0.0,47,8919,195,17.0,-2558.954833984375,0.1499999,0,0.0,0.0,1.57542003E9,,,,0,0.010299956639812535,1,,1.57542003E9
Raw,435355165,1197028679000999936,18,111.59821319728552,298225,0.0,111.59821319728552,200.0416589244996,3.3621424242790354,0,22,0.0,47,129478922363001,196,16.0,3693.783447265625,0.1499999,0,0.0,0.0,1.57542003E9,,,,0,0.0,1,,1.57542003E9
Raw,435355166,1197028679000999936,18,111.59821319728552,298225,0.0,111.59821319728552,200.0416589244996,3.3621424242790354,0,23,0.0,47,129478932369837,192,20.0,175.92330932617188,0.1499999,0,0.0,0.0,1.57542003E9,,,,0,3.0102999566398125,1,,1.57542003E9
Raw,435355184,1197028679000999936,18,111.59821319728552,298225,0.0,111.59821319728552,200.0416589244996,3.3621424242790354,0,26,0.0,47,129478924397049,192,20.0,-504.5953674316406,0.1499999,0,0.0,0.0,1.57542003E9,,,,0,3.0102999566398125,1,,1.57542003E9
Raw,435355190,1197028679000999936,18,111.59821319728552,298225,0.0,111.59821319728552,200.0416589244996,3.3621424242790354,0,29,0.0,2,16844,194,18.0,-1151.043701171875,0.1499999,0,0.0,0.0,1.57542003E9,,,,0,1.0102999566398125,1,,1.57542003E9
Fix,gps,55.983395,37.209900,209.700000,0.000000,7.500000,1512993461000
NMEA,$GPGSV,3,1,12,23,87,178,23.5,09,54,263,24.0,03,43,148,19.7,06,37,285,20.7*7B
,1512993461000
NMEA,$GPGSV,3,2,12,26,30,079,23.5,22,24,144,14.0,16,21,112,21.4,02,20,321,*6B
,1512993461000
NMEA,$GPGSV,3,3,12,31,15,046,25.6,07,14,208,9.6,29,05,015,21.9,43,,,*61
,1512993461000
NMEA,$GPRMC,115741.000,A,5559.0037,N,03712.5940,E,0.000,150.16,111217,,,A*58
,1512993461000
NMEA,$GPVTG,150.16,T,,M,0.000,N,0.000,K,A*3E
,1512993461000
NMEA,$GPACCURACY,7.5*0A
,1512993461000
NMEA,$PMTKAGC,115741.000,539,447,21,0*49
,1512993461000
NMEA,$GPGGA,115742.000,5559.0037,N,03712.5940,E,1,9,0.93,209.7,M,14.9,M,,*5C
,1512993462000
NMEA,$GPGSA,A,3,29,31,26,23,16,22,03,09,06,,,,1.27,0.93,0.87*04
,1512993462000
NMEA,$PMTKGEPH,13,1,2,1,0,0,1,2,0,1,0,0,0,0,0,0,2,0,0,1,0,0,1,1,0,0,1,0,0,2,0,1,0*37
,1512993462000
Raw,435356187,1197028680000999936,18,109.02815213085134,298422,0.0,109.02815213085134,198.5905705639173,3.2939947871298125,0,3,0.0,47,129479927984036,185,24.0,3132.801025390625,0.1499999,0,0.0,0.0,1.57542003E9,,,,0,7.0102999566398125,1,,1.57542003E9
Raw,435356188,1197028680000999936,18,109.02815213085134,298422,0.0,109.02815213085134,198.5905705639173,3.2939947871298125,0,6,0.0,47,129479926751120,189,20.0,454.73248291015625,0.1499999,0,0.0,0.0,1.57542003E9,,,,0,3.0102999566398125,1,,1.57542003E9
Raw,435356190,1197028680000999936,18,109.02815213085134,298422,0.0,109.02815213085134,198.5905705639173,3.2939947871298125,0,9,0.0,47,129479930727395,185,24.0,-1773.2093505859375,0.1499999,0,0.0,0.0,1.57542003E9,,,,0,7.0102999566398125,1,,1.57542003E9
Raw,435356191,1197028680000999936,18,109.02815213085134,298422,0.0,109.02815213085134,198.5905705639173,3.2939947871298125,0,16,0.0,47,10543,194,15.0,-2558.139892578125,0.1499999,0,0.0,0.0,1.57542003E9,,,,0,0.0,1,,1.57542003E9
Raw,435356194,1197028680000999936,18,109.02815213085134,298422,0.0,109.02815213085134,198.5905705639173,3.2939947871298125,0,22,0.0,47,129479922360656,191,18.0,3693.592041015625,0.1499999,0,0.0,0.0,1.57542003E9,,,,0,1.0102999566398125,1,,1.57542003E9
Raw,435356195,1197028680000999936,18,109.02815213085134,298422,0.0,109.02815213085134,198.5905705639173,3.2939947871298125,0,23,0.0,47,129479932369727,186,23.0,172.21847534179688,0.1499999,0,0.0,0.0,1.57542003E9,,,,0,6.0102999566398125,1,,1.57542003E9
Raw,435356197,1197028680000999936,18,109.02815213085134,298422,0.0,109.02815213085134,198.5905705639173,3.2939947871298125,0,26,0.0,47,129479924397368,185,24.0,-505.6062316894531,0.1499999,0,0.0,0.0,1.57542003E9,,,,0,7.0102999566398125,1,,1.57542003E9
Raw,435356199,1197028680000999936,18,109.02815213085134,298422,0.0,109.02815213085134,198.5905705639173,3.2939947871298125,0,29,0.0,2,17575,191,18.0,-1153.4619140625,0.1499999,0,0.0,0.0,1.57542003E9,,,,0,1.0102999566398125,1,,1.57542003E9
Raw,435356201,1197028680000999936,18,109.02815213085134,298422,0.0,109.02815213085134,198.5905705639173,3.2939947871298125,0,31,0.0,47,129479919247846,189,20.0,3900.375244140625,0.1499999,0,0.0,0.0,1.57542003E9,,,,0,3.0102999566398125,1,,1.57542003E9
NMEA,$PMTKGALM,31,1,1,1,0,1,1,1,1,1,1,1,1,1,1,1,1,1,1,1,1,1,1,1,1,1,1,1,1,1,1,1,1*2A
,1512993462000
NMEA,$GPGSV,3,1,11,23,87,178,22.3,09,54,263,24.0,03,43,148,19.7,06,37,285,20.7*7F
,1512993462000
NMEA,$GPGSV,3,2,11,26,30,079,22.5,22,24,144,14.0,16,21,112,19.7,02,20,321,*61
,1512993462000
NMEA,$GPGSV,3,3,11,31,15,046,17.9,07,14,208,9.6,29,05,015,21.4*66
,1512993462000
NMEA,$GPRMC,115742.000,A,5559.0037,N,03712.5940,E,0.000,150.16,111217,,,A*5B
,1512993462000
NMEA,$GPVTG,150.16,T,,M,0.000,N,0.000,K,A*3E
,1512993462000
NMEA,$GPACCURACY,7.5*0A
,1512993462000
Fix,gps,55.983395,37.209900,209.700000,0.000000,7.500000,1512993462000
NMEA,$PMTKAGC,115742.000,5943,5841,21,0*41
,1512993462000
NMEA,$GPGGA,115743.000,5559.0037,N,03712.5940,E,1,6,1.18,209.7,M,14.9,M,,*50
,1512993463000
NMEA,$GPGSA,A,3,31,26,23,22,09,06,,,,,,,1.49,1.18,0.90*07
,1512993463000
Raw,435357166,1197028681000999936,18,103.31306889173692,298618,0.0,103.31306889173692,197.13254108898508,3.3947082948841922,0,6,0.0,47,129480926750834,182,21.0,453.59625244140625,0.1499999,0,0.0,0.0,1.57542003E9,,,,0,4.0102999566398125,1,,1.57542003E9
Raw,435357167,1197028681000999936,18,103.31306889173692,298618,0.0,103.31306889173692,197.13254108898508,3.3947082948841922,0,9,0.0,47,129480930728521,178,25.0,-1773.906005859375,0.1499999,0,0.0,0.0,1.57542003E9,,,,0,8.010299956639813,1,,1.57542003E9
Raw,435357169,1197028681000999936,18,103.31306889173692,298618,0.0,103.31306889173692,197.13254108898508,3.3947082948841922,0,22,0.0,47,129480922358309,184,19.0,3689.61181640625,0.1499999,0,0.0,0.0,1.57542003E9,,,,0,2.0102999566398125,1,,1.57542003E9
Raw,435357171,1197028681000999936,18,103.31306889173692,298618,0.0,103.31306889173692,197.13254108898508,3.3947082948841922,0,23,0.0,47,129480932369646,180,23.0,168.64279174804688,0.1499999,0,0.0,0.0,1.57542003E9,,,,0,6.0102999566398125,1,,1.57542003E9
Raw,435357172,1197028681000999936,18,103.31306889173692,298618,0.0,103.31306889173692,197.13254108898508,3.3947082948841922,0,31,0.0,47,129480919245371,183,20.0,3896.308837890625,0.1499999,0,0.0,0.0,1.57542003E9,,,,0,3.0102999566398125,1,,1.57542003E9
NMEA,$PMTKGEPH,13,1,2,1,0,0,1,2,0,1,0,0,0,0,0,0,2,0,0,1,0,0,1,1,0,0,1,0,0,2,0,1,0*37
,1512993463000
NMEA,$PMTKGALM,31,1,1,1,0,1,1,1,1,1,1,1,1,1,1,1,1,1,1,1,1,1,1,1,1,1,1,1,1,1,1,1,1*2A
,1512993463000
Fix,gps,55.983395,37.209900,209.700000,0.000000,7.500000,1512993463000
NMEA,$GPGSV,3,1,11,23,87,178,22.6,09,54,263,23.9,03,43,148,23.3,06,37,285,20.7*79
,1512993463000
NMEA,$GPGSV,3,2,11,26,30,079,24.2,22,24,144,15.0,16,21,112,10.9,02,20,321,*66
,1512993463000
NMEA,$GPGSV,3,3,11,31,15,046,17.9,07,14,208,11.9,29,05,015,13.3*56
,1512993463000
NMEA,$GPRMC,115743.000,A,5559.0037,N,03712.5940,E,0.000,150.16,111217,,,A*5A
,1512993463000
NMEA,$GPVTG,150.16,T,,M,0.000,N,0.000,K,A*3E
,1512993463000
NMEA,$GPACCURACY,7.5*0A
,1512993463000
NMEA,$PMTKAGC,115743.000,3605,3565,21,0*46
,1512993463000
NMEA,$GPGGA,115744.000,5559.0037,N,03712.5940,E,1,6,1.18,209.7,M,14.9,M,,*57
,1512993464000
NMEA,$GPGSA,A,3,31,26,23,22,09,06,,,,,,,1.49,1.18,0.90*07
,1512993464000
NMEA,$PMTKGEPH,13,1,2,1,0,0,1,2,0,1,0,0,0,0,0,0,2,0,0,1,0,0,1,1,0,0,1,0,0,2,0,1,0*37
,1512993464000
Raw,435358160,1197028682000999936,18,106.48233116151464,298812,0.0,106.48233116151464,195.72428157997916,3.5037016487969135,0,6,0.0,47,129481926750546,185,21.0,452.94757080078125,0.1499999,0,0.0,0.0,1.57542003E9,,,,0,4.0102999566398125,1,,1.57542003E9
Raw,435358161,1197028682000999936,18,106.48233116151464,298812,0.0,106.48233116151464,195.72428157997916,3.5037016487969135,0,9,0.0,47,129481930729646,180,26.0,-1779.1796875,0.1499999,0,0.0,0.0,1.57542003E9,,,,0,9.010299956639813,1,,1.57542003E9
Raw,435358163,1197028682000999936,18,106.48233116151464,298812,0.0,106.48233116151464,195.72428157997916,3.5037016487969135,0,22,0.0,47,129481922355967,189,17.0,3688.821533203125,0.1499999,0,0.0,0.0,1.57542003E9,,,,0,0.010299956639812535,1,,1.57542003E9
Raw,435358164,1197028682000999936,18,106.48233116151464,298812,0.0,106.48233116151464,195.72428157997916,3.5037016487969135,0,23,0.0,47,129481932369539,187,19.0,167.08419799804688,0.1499999,0,0.0,0.0,1.57542003E9,,,,0,2.0102999566398125,1,,1.57542003E9
Raw,435358165,1197028682000999936,18,106.48233116151464,298812,0.0,106.48233116151464,195.72428157997916,3.5037016487969135,0,31,0.0,47,129481919242899,186,20.0,3892.273681640625,0.1499999,0,0.0,0.0,1.57542003E9,,,,0,3.0102999566398125,1,,1.57542003E9
NMEA,$PMTKGALM,31,1,1,1,0,1,1,1,1,1,1,1,1,1,1,1,1,1,1,1,1,1,1,1,1,1,1,1,1,1,1,1,1*2A
,1512993464000
NMEA,$GPGSV,3,1,11,23,87,178,22.8,09,54,263,24.2,03,43,148,23.3,06,37,285,20.6*7A
,1512993464000
NMEA,$GPGSV,3,2,11,26,30,079,25.3,22,24,144,15.7,16,21,112,10.9,02,20,321,*61
,1512993464000
NMEA,$GPGSV,3,3,11,31,15,046,17.9,07,14,208,11.9,29,05,015,13.3*56
,1512993464000
NMEA,$GPRMC,115744.000,A,5559.0037,N,03712.5940,E,0.000,150.16,111217,,,A*5D
,1512993464000
NMEA,$GPVTG,150.16,T,,M,0.000,N,0.000,K,A*3E
,1512993464000
NMEA,$GPACCURACY,7.6*09
,1512993464000
Fix,gps,55.983395,37.209900,209.700000,0.000000,7.600000,1512993464000
NMEA,$PMTKAGC,115744.000,2670,3001,21,0*45
,1512993464000
Fix,gps,55.983395,37.209900,209.700000,0.000000,7.500000,1512993465000
Raw,435359258,1197028683000999936,18,109.87823515803879,299002,0.0,109.87823515803879,192.56131657895463,2.9149752610339412,0,3,0.0,47,129482927978088,186,24.0,3132.168212890625,0.1499999,0,0.0,0.0,1.57542003E9,,,,0,7.0102999566398125,1,,1.57542003E9
Raw,435359260,1197028683000999936,18,109.87823515803879,299002,0.0,109.87823515803879,192.56131657895463,2.9149752610339412,0,6,0.0,47,129482926750260,190,20.0,449.19927978515625,0.1499999,0,0.0,0.0,1.57542003E9,,,,0,3.0102999566398125,1,,1.57542003E9
Raw,435359262,1197028683000999936,18,109.87823515803879,299002,0.0,109.87823515803879,192.56131657895463,2.9149752610339412,0,9,0.0,47,129482930730777,180,30.0,-1783.337646484375,0.1499999,0,0.0,0.0,1.57542003E9,,,,0,13.010299956639813,1,,1.57542003E9
Raw,435359263,1197028683000999936,18,109.87823515803879,299002,0.0,109.87823515803879,192.56131657895463,2.9149752610339412,0,22,0.0,47,129482922353627,191,19.0,3686.273681640625,0.1499999,0,0.0,0.0,1.57542003E9,,,,0,2.0102999566398125,1,,1.57542003E9
Raw,435359265,1197028683000999936,18,109.87823515803879,299002,0.0,109.87823515803879,192.56131657895463,2.9149752610339412,0,23,0.0,47,129482932369434,188,22.0,166.29782104492188,0.1499999,0,0.0,0.0,1.57542003E9,,,,0,5.0102999566398125,1,,1.57542003E9
Raw,435359267,1197028683000999936,18,109.87823515803879,299002,0.0,109.87823515803879,192.56131657895463,2.9149752610339412,0,26,0.0,47,129482924398248,187,23.0,-510.1556396484375,0.1499999,0,0.0,0.0,1.57542003E9,,,,0,6.0102999566398125,1,,1.57542003E9
Raw,435359269,1197028683000999936,18,109.87823515803879,299002,0.0,109.87823515803879,192.56131657895463,2.9149752610339412,0,29,0.0,2,19741,194,16.0,-1157.105712890625,0.1499999,0,0.0,0.0,1.57542003E9,,,,0,0.0,1,,1.57542003E9
Raw,435359271,1197028683000999936,18,109.87823515803879,299002,0.0,109.87823515803879,192.56131657895463,2.9149752610339412,0,31,0.0,47,129482919240423,191,19.0,3891.92431640625,0.1499999,0,0.0,0.0,1.57542003E9,,,,0,2.0102999566398125,1,,1.57542003E9
NMEA,$GPGGA,115745.000,5559.0037,N,03712.5940,E,1,8,0.97,209.7,M,14.9,M,,*5E
,1512993465000
NMEA,$GPGSA,A,3,29,31,26,23,22,03,09,06,,,,,1.30,0.97,0.87*01
,1512993465000
NMEA,$PMTKGEPH,13,1,2,1,0,0,1,2,0,1,0,0,0,0,0,0,2,0,0,1,0,0,1,1,0,0,1,0,0,2,0,1,0*37
,1512993465000
NMEA,$PMTKGALM,31,1,1,1,0,1,1,1,1,1,1,1,1,1,1,1,1,1,1,1,1,1,1,1,1,1,1,1,1,1,1,1,1*2A
,1512993465000
NMEA,$GPGSV,3,1,12,23,87,178,23.0,09,54,263,25.3,03,43,148,22.9,06,37,285,20.6*7B
,1512993465000
NMEA,$GPGSV,3,2,12,26,30,079,23.4,22,24,144,16.1,16,22,112,12.3,02,20,321,*6D
,1512993465000
NMEA,$GPGSV,3,3,12,31,15,046,14.0,07,14,208,11.9,29,05,015,11.9,45,,,*56
,1512993465000
NMEA,$GPRMC,115745.000,A,5559.0037,N,03712.5940,E,0.000,150.16,111217,,,A*5C
,1512993465000
NMEA,$GPVTG,150.16,T,,M,0.000,N,0.000,K,A*3E
,1512993465000
NMEA,$GPACCURACY,7.5*0A
,1512993465000
NMEA,$PMTKAGC,115745.000,4315,3976,21,0*4D
,1512993465000
NMEA,$GPGGA,115746.000,5559.0040,N,03712.5869,E,1,9,0.85,209.5,M,14.9,M,,*57
,1512993466000
NMEA,$GPGSA,A,3,29,31,26,23,22,03,09,06,07,,,,1.16,0.85,0.79*00
,1512993466000
NMEA,$PMTKGEPH,13,1,2,1,0,0,1,2,0,1,0,0,0,0,0,0,2,0,0,1,0,0,1,1,0,0,1,0,0,2,0,1,0*37
,1512993466000
NMEA,$PMTKGALM,31,1,1,1,0,1,1,1,1,1,1,1,1,1,1,1,1,1,1,1,1,1,1,1,1,1,1,1,1,1,1,1,1*2A
,1512993466000
Raw,435360185,1197028684000999936,18,103.69513354026672,299195,0.0,103.69513354026672,192.06272246851168,3.2157990014634463,0,7,0.0,47,12349,179,25.0,-3308.869140625,0.1499999,0,0.0,0.0,1.57542003E9,,,,0,8.010299956639813,1,,1.57542003E9
Raw,435360186,1197028684000999936,18,103.69513354026672,299195,0.0,103.69513354026672,192.06272246851168,3.2157990014634463,0,9,0.0,47,129483930731907,171,33.0,-1788.5924072265625,0.1499999,0,0.0,0.0,1.57542003E9,,,,0,16.010299956639813,1,,1.57542003E9
Raw,435360188,1197028684000999936,18,103.69513354026672,299195,0.0,103.69513354026672,192.06272246851168,3.2157990014634463,0,22,0.0,47,129483922351286,186,18.0,3684.513916015625,0.1499999,0,0.0,0.0,1.57542003E9,,,,0,1.0102999566398125,1,,1.57542003E9
Raw,435360189,1197028684000999936,18,103.69513354026672,299195,0.0,103.69513354026672,192.06272246851168,3.2157990014634463,0,26,0.0,47,129483924398653,173,31.0,-513.3599853515625,0.1499999,0,0.0,0.0,1.57542003E9,,,,0,14.010299956639813,1,,1.57542003E9
Raw,435360191,1197028684000999936,18,103.69513354026672,299195,0.0,103.69513354026672,192.06272246851168,3.2157990014634463,0,29,0.0,2,476,182,22.0,-1161.430908203125,0.1499999,0,0.0,0.0,1.57542003E9,,,,0,5.0102999566398125,1,,1.57542003E9
Raw,435360193,1197028684000999936,18,103.69513354026672,299195,0.0,103.69513354026672,192.06272246851168,3.2157990014634463,0,31,0.0,47,129483919237952,183,21.0,3888.863525390625,0.1499999,0,0.0,0.0,1.57542003E9,,,,0,4.0102999566398125,1,,1.57542003E9
NMEA,$GPGSV,3,1,12,23,87,178,24.5,09,54,263,32.3,03,43,148,22.5,06,37,285,20.9*7C
,1512993466000
Fix,gps,55.983400,37.209782,209.500000,0.000000,7.500000,1512993466000
NMEA,$GPGSV,3,2,12,26,30,079,29.7,22,24,144,13.1,16,22,112,12.3,02,20,321,*61
,1512993466000
NMEA,$GPGSV,3,3,12,31,15,046,14.0,07,14,208,24.0,29,05,015,11.9,45,,,*59
,1512993466000
NMEA,$GPRMC,115746.000,A,5559.0040,N,03712.5869,E,0.000,150.16,111217,,,A*55
,1512993466000
NMEA,$GPVTG,150.16,T,,M,0.000,N,0.000,K,A*3E
,1512993466000
NMEA,$GPACCURACY,7.5*0A
,1512993466000
NMEA,$PMTKAGC,115746.000,3887,3904,21,0*4C
,1512993466000
NMEA,$GPGGA,115747.000,5559.0044,N,03712.5872,E,1,9,0.85,209.5,M,14.9,M,,*58
,1512993467000
NMEA,$GPGSA,A,3,29,31,26,23,22,03,09,06,07,,,,1.16,0.85,0.79*00
,1512993467000
NMEA,$PMTKGEPH,13,1,2,1,0,0,1,2,0,1,0,0,0,0,0,0,2,0,0,1,0,0,1,1,0,0,1,0,0,2,0,1,0*37
,1512993467000
NMEA,$PMTKGALM,31,1,1,1,0,1,1,1,1,1,1,1,1,1,1,1,1,1,1,1,1,1,1,1,1,1,1,1,1,1,1,1,1*2A
,1512993467000
Raw,435361180,1197028685000999936,18,104.50606976497627,299383,0.0,104.50606976497627,189.29790764697967,3.079913693374113,0,3,0.0,47,129484927974125,183,22.0,3121.81640625,0.1499999,0,0.0,0.0,1.57542003E9,,,,0,5.0102999566398125,1,,1.57542003E9
Raw,435361182,1197028685000999936,18,104.50606976497627,299383,0.0,104.50606976497627,189.29790764697967,3.079913693374113,0,7,0.0,47,14450,183,22.0,-3315.195556640625,0.1499999,0,0.0,0.0,1.57542003E9,,,,0,5.0102999566398125,1,,1.57542003E9
Raw,435361183,1197028685000999936,18,104.50606976497627,299383,0.0,104.50606976497627,189.29790764697967,3.079913693374113,0,9,0.0,47,129484930733041,178,27.0,-1789.8968505859375,0.1499999,0,0.0,0.0,1.57542003E9,,,,0,10.010299956639813,1,,1.57542003E9
Raw,435361185,1197028685000999936,18,104.50606976497627,299383,0.0,104.50606976497627,189.29790764697967,3.079913693374113,0,22,0.0,47,129484922348948,189,16.0,3683.49609375,0.1499999,0,0.0,0.0,1.57542003E9,,,,0,0.0,1,,1.57542003E9
Raw,435361186,1197028685000999936,18,104.50606976497627,299383,0.0,104.50606976497627,189.29790764697967,3.079913693374113,0,23,0.0,47,129484932369205,179,26.0,161.75648498535156,0.1499999,0,0.0,0.0,1.57542003E9,,,,0,9.010299956639813,1,,1.57542003E9
Raw,435361188,1197028685000999936,18,104.50606976497627,299383,0.0,104.50606976497627,189.29790764697967,3.079913693374113,0,26,0.0,47,129484924398970,178,27.0,-522.311767578125,0.1499999,0,0.0,0.0,1.57542003E9,,,,0,10.010299956639813,1,,1.57542003E9
Raw,435361189,1197028685000999936,18,104.50606976497627,299383,0.0,104.50606976497627,189.29790764697967,3.079913693374113,0,29,0.0,2,1184,184,21.0,-1166.089599609375,0.1499999,0,0.0,0.0,1.57542003E9,,,,0,4.0102999566398125,1,,1.57542003E9
Raw,435361190,1197028685000999936,18,104.50606976497627,299383,0.0,104.50606976497627,189.29790764697967,3.079913693374113,0,31,0.0,47,129484919235476,183,22.0,3883.41064453125,0.1499999,0,0.0,0.0,1.57542003E9,,,,0,5.0102999566398125,1,,1.57542003E9
NMEA,$GPGSV,3,1,12,23,87,178,25.4,09,54,263,32.6,03,43,148,21.9,06,37,285,20.9*76
,1512993467000
Fix,gps,55.983407,37.209787,209.500000,0.000000,7.500000,1512993467000
NMEA,$GPGSV,3,2,12,26,30,079,29.5,22,24,144,13.1,16,22,112,12.3,02,20,321,*63
,1512993467000
NMEA,$GPGSV,3,3,12,31,15,046,20.4,07,14,208,24.0,29,05,015,19.4,45,,,*5F
,1512993467000
NMEA,$GPRMC,115747.000,A,5559.0044,N,03712.5872,E,0.000,150.16,111217,,,A*5A
,1512993467000
NMEA,$GPVTG,150.16,T,,M,0.000,N,0.000,K,A*3E
,1512993467000
NMEA,$GPACCURACY,7.5*0A
,1512993467000
NMEA,$PMTKAGC,115747.000,378,332,21,0*49
,1512993467000
Fix,gps,55.983412,37.209783,209.500000,0.000000,7.500000,1512993468000
Raw,435362199,1197028686000999936,18,103.08320151427436,299567,0.0,103.08320151427436,186.09237403065575,2.903577922073035,0,3,0.0,47,129485927972141,181,22.0,3120.379150390625,0.1499999,0,0.0,0.0,1.57542003E9,,,,0,5.0102999566398125,1,,1.57542003E9
Raw,435362201,1197028686000999936,18,103.08320151427436,299567,0.0,103.08320151427436,186.09237403065575,2.903577922073035,0,7,0.0,47,16586,181,22.0,-3319.8330078125,0.1499999,0,0.0,0.0,1.57542003E9,,,,0,5.0102999566398125,1,,1.57542003E9
Raw,435362202,1197028686000999936,18,103.08320151427436,299567,0.0,103.08320151427436,186.09237403065575,2.903577922073035,0,9,0.0,47,129485930734177,170,33.0,-1792.6370849609375,0.1499999,0,0.0,0.0,1.57542003E9,,,,0,16.010299956639813,1,,1.57542003E9
Raw,435362204,1197028686000999936,18,103.08320151427436,299567,0.0,103.08320151427436,186.09237403065575,2.903577922073035,0,16,0.0,47,311,183,20.0,-2576.8095703125,0.1499999,0,0.0,0.0,1.57542003E9,,,,0,3.0102999566398125,1,,1.57542003E9
Raw,435362206,1197028686000999936,18,103.08320151427436,299567,0.0,103.08320151427436,186.09237403065575,2.903577922073035,0,22,0.0,47,129485922346587,185,18.0,3682.041259765625,0.1499999,0,0.0,0.0,1.57542003E9,,,,0,1.0102999566398125,1,,1.57542003E9
Raw,435362208,1197028686000999936,18,103.08320151427436,299567,0.0,103.08320151427436,186.09237403065575,2.903577922073035,0,23,0.0,47,129485932369104,178,25.0,153.01319885253906,0.1499999,0,0.0,0.0,1.57542003E9,,,,0,8.010299956639813,1,,1.57542003E9
Raw,435362211,1197028686000999936,18,103.08320151427436,299567,0.0,103.08320151427436,186.09237403065575,2.903577922073035,0,26,0.0,47,129485924399304,174,29.0,-527.5946044921875,0.1499999,0,0.0,0.0,1.57542003E9,,,,0,12.010299956639813,1,,1.57542003E9
Raw,435362213,1197028686000999936,18,103.08320151427436,299567,0.0,103.08320151427436,186.09237403065575,2.903577922073035,0,29,0.0,2,1923,187,16.0,-1165.207763671875,0.1499999,0,0.0,0.0,1.57542003E9,,,,0,0.0,1,,1.57542003E9
Raw,435362217,1197028686000999936,18,103.08320151427436,299567,0.0,103.08320151427436,186.09237403065575,2.903577922073035,0,31,0.0,47,129485919233011,181,22.0,3879.30126953125,0.1499999,0,0.0,0.0,1.57542003E9,,,,0,5.0102999566398125,1,,1.57542003E9
NMEA,$GPGGA,115748.000,5559.0047,N,03712.5870,E,1,10,0.80,209.5,M,14.9,M,,*6B
,1512993468000
NMEA,$GPGSA,A,3,29,31,26,23,16,22,03,09,06,07,,,1.12,0.80,0.79*06
,1512993468000
NMEA,$PMTKGEPH,13,1,2,1,0,0,1,2,0,1,0,0,0,0,0,0,2,0,0,1,0,0,1,1,0,0,1,0,0,2,0,1,0*37
,1512993468000
NMEA,$PMTKGALM,31,1,1,1,0,1,1,1,1,1,1,1,1,1,1,1,1,1,1,1,1,1,1,1,1,1,1,1,1,1,1,1,1*2A
,1512993468000
NMEA,$GPGSV,3,1,12,23,87,178,25.9,09,54,263,32.7,03,43,148,21.1,06,37,285,20.9*72
,1512993468000
NMEA,$GPGSV,3,2,12,26,30,079,29.4,22,24,144,13.1,16,22,112,14.9,02,20,321,*6E
,1512993468000
NMEA,$GPGSV,3,3,12,31,15,046,20.4,07,14,208,18.6,29,05,015,19.4,45,,,*56
,1512993468000
NMEA,$GPRMC,115748.000,A,5559.0047,N,03712.5870,E,0.000,150.16,111217,,,A*54
,1512993468000
NMEA,$GPVTG,150.16,T,,M,0.000,N,0.000,K,A*3E
,1512993468000
NMEA,$GPACCURACY,7.5*0A
,1512993468000
NMEA,$PMTKAGC,115748.000,3619,3806,21,0*48
,1512993468000
Fix,gps,55.983413,37.209777,209.400000,0.000000,7.500000,1512993469000
NMEA,$GPGGA,115749.000,5559.0048,N,03712.5866,E,1,10,0.80,209.4,M,14.9,M,,*63
,1512993469000
Raw,435363227,1197028687000999936,18,97.09367711285093,299747,0.0,97.09367711285093,182.05992054841684,2.893497564765457,0,3,0.0,47,129486927970161,174,23.0,3113.5087890625,0.1499999,0,0.0,0.0,1.57542003E9,,,,0,6.0102999566398125,1,,1.57542003E9
Raw,435363229,1197028687000999936,18,97.09367711285093,299747,0.0,97.09367711285093,182.05992054841684,2.893497564765457,0,6,0.0,47,129486926749112,180,17.0,440.5714111328125,0.1499999,0,0.0,0.0,1.57542003E9,,,,0,0.010299956639812535,1,,1.57542003E9
Raw,435363231,1197028687000999936,18,97.09367711285093,299747,0.0,97.09367711285093,182.05992054841684,2.893497564765457,0,7,0.0,47,18778,170,27.0,-3332.8115234375,0.1499999,0,0.0,0.0,1.57542003E9,,,,0,10.010299956639813,1,,1.57542003E9
